C:\Users\000\OneDrive\Desktop\fire_predictor_project발생일시_년,발생일시_월,발생일시_일,발생일시_시간,발생일시_요일,진화종료시간_년,진화종료시간_월,진화종료시간_일,진화종료시간_시간,발생장소_관서,발생장소_시도,발생장소_시군구,발생장소_읍면,발생장소_동리,발생원인_구분,발생원인_세부원인,발생원인_기타,피해면적_합계,full_address,LAT,LON
2024,9,29,15:41,일,2024,9,30,16:30,전북,전북,남원,산동,부절,기,작업장실화,산업현장실화,0.31,대한민국 전북 남원 산동,35.49311,127.47316
2024,9,10,14:35,화,2024,9,10,17:52,충남,충남,부여,규암,수목,기,기타(직접입력),원인미상,0.03,대한민국 충남 부여 규암,36.27452,126.88752
2024,9,10,14:24,화,2024,9,10,22:00,경북,경북,상주,화동,신촌,기,기타(직접입력),조사중,1.0,대한민국 경북 상주 화동,36.385477,127.9501924
2024,9,5,6:51,목,2024,9,5,7:26,충남,충남,천안 동남,수신,해정,담,기타(직접입력),담뱃불실화추정,0.02,대한민국 충남 천안 동남 수신,36.7452768,127.2894015
2024,8,18,11:40,일,2024,8,18,16:00,울산,울산,울주,범서,서사,입,기타(직접입력),입산자실화추정,0.2,대한민국 울산 울주 범서,35.5707493,129.2368105
2024,8,15,11:38,목,2024,8,15,12:08,경기,경기,안산,단원,선부,기,기타(직접입력),원인미상,0.01,대한민국 경기 안산 단원,37.35009,126.822414
2024,8,14,15:17,수,2024,8,14,19:15,전남,전남,완도,금당,차우,기,기타(직접입력),전신주단락,0.14,대한민국 전남 완도 금당,34.43926,127.05414
2024,8,12,11:45,월,2024,8,12,12:08,경기,경기,파주,탄현,금산,기,기타(직접입력),조사중,0.01,대한민국 경기 파주 탄현,37.8042615,126.7186775
2024,6,28,12:20,금,2024,6,28,15:50,충남,충남,공주,신풍,용수,담,기타(직접입력),담뱃불실화,0.3,대한민국 충남 공주 신풍,36.5070333,126.9455613
2024,6,21,15:57,금,2024,6,21,20:00,전북,전북,남원,산내,백일,입,기타(직접입력),입산자실화추정,0.33,대한민국 전북 남원 산내,35.40046,127.61642
2024,6,20,14:44,목,2024,6,20,16:05,강원,강원,정선,남면,유평,기,기타(직접입력),전선혼촉,0.04,대한민국 강원 정선 남면,37.2835,128.72975
2024,6,18,17:25,화,2024,6,18,20:30,충남,충남,서천,화양,보현,기,기타(직접입력),원인미상,0.01,대한민국 충남 서천 화양,36.0508194,126.7861149
2024,6,18,13:57,화,2024,6,18,17:00,강원,강원,평창,진부,척전,기,기타(직접입력),원인미상,0.17,대한민국 강원 평창 진부,37.6425685,128.5748224
2024,6,18,12:41,화,2024,6,18,15:18,경기,경기,용인 처인,이동,송전,기,기타(직접입력),원인미상,0.06,대한민국 경기 용인 처인 이동,37.1390766,127.1997811
2024,6,17,10:26,월,2024,6,17,11:18,경북,경북,영천,신녕,화서,기,기타(직접입력),원인미상,0.01,대한민국 경북 영천 신녕,36.0333598,128.791276
2024,6,15,15:12,토,2024,6,15,18:55,충남,충남,서산,해미,대곡,기,기타(직접입력),포크레인화재비화,0.2,대한민국 충남 서산 해미,36.7175368,126.5432623
2024,6,13,13:29,목,2024,6,13,17:00,남부,경북,김천,구성,마산,기,기타(직접입력),송전선로지락,0.45,대한민국 경북 김천 구성,36.031047,128.039395
2024,6,10,4:38,월,2024,6,10,14:06,인천,인천,강화,양사,덕하,기,기타(직접입력),원인미상,0.13,대한민국 인천 강화 양사,37.7983361,126.4085439
2024,6,10,3:03,월,2024,6,10,14:23,인천,인천,강화,하점,신봉,기,기타(직접입력),원인미상,0.46,대한민국 인천 강화 하점,37.7733444,126.4139111
2024,6,9,12:29,일,2024,6,9,14:10,인천,인천,강화,삼산,매음,기,기타(직접입력),원인미상,0.01,대한민국 인천 강화 삼산,37.7032204,126.3216476
2024,6,7,15:07,금,2024,6,7,15:49,경기,경기,양평,단월,덕수,기,기타(직접입력),원인미상,0.02,대한민국 경기 양평 단월,37.5411074,127.6727088
2024,6,5,15:37,수,2024,6,5,18:00,경기,경기,광주,초월,신월,,기타(직접입력),농막화재,0.03,대한민국 경기 광주 초월,37.3733591,127.2999508
2024,6,1,15:22,토,2024,6,1,18:35,경기,경기,파주,탄현,축현,,주택화재비화,공장화재,0.99,대한민국 경기 파주 탄현,37.8042615,126.7186775
2024,5,24,13:27,금,2024,5,24,17:20,전남,전남,화순,사평,검산,,기타(직접입력),밭두렁소각,0.5,대한민국 전남 화순 사평,35.0081,127.092809
2024,5,23,21:55,목,2024,5,24,1:00,경북,경북,상주,낙동,물량,기,작업장실화,산업현장실화추정,0.03,대한민국 경북 상주 낙동,36.3629476,128.2983398
2024,5,19,10:57,일,2024,5,19,12:50,울산,울산,울주,청량,중,기,기타(직접입력),전기적요인,0.03,대한민국 울산 울주 청량,35.4784668,129.2820358
2024,5,4,11:49,토,2024,5,4,12:27,인천,인천,강화,양도,삼흥,,기타(직접입력),밭두렁소각,0.06,대한민국 인천 강화 양도,37.664985,126.4202004
2024,5,4,10:33,토,2024,5,4,18:45,강원,강원,홍천,내촌,문현,입,기타(직접입력),입산자실화,1.46,대한민국 강원 홍천 내촌,37.81543,128.08729
2024,5,3,11:14,금,2024,5,3,12:30,경북,경북,봉화,재산,갈산,입,기타(직접입력),입산자실화추정,0.02,대한민국 경북 봉화 재산,36.817516,128.9628136
2024,5,2,16:07,목,2024,5,2,18:10,충남,충남,서천,판교,판교,입,기타(직접입력),입산자실화,0.07,대한민국 충남 서천 판교,36.1554157,126.6794253
2024,5,2,11:42,목,2024,5,2,14:05,경북,경북,문경,마성,오천,기,기타(직접입력),조류퇴치탄 성능시험,0.27,대한민국 경북 문경 마성,36.6949305,128.1343878
2024,4,28,13:21,일,2024,4,28,14:43,충남,충남,당진,정미,천의,입,기타(직접입력),입산자실화,0.03,대한민국 충남 당진 정미,36.85909,126.56302
2024,4,28,12:40,일,2024,4,28,13:23,충남,충남,태안,남,양잠,담,기타(직접입력),담뱃불실화,0.22,대한민국 충남 태안 남,36.6704094,126.2997798
2024,4,26,15:42,금,2024,4,26,17:00,경북,경북,봉화,봉화,석평,,농산폐기물소각,농산폐기물소각,0.26,대한민국 경북 봉화 봉화,36.8914813,128.7268956
2024,4,23,16:52,화,2024,4,23,17:13,경기,경기,성남,분당,이매,담,기타(직접입력),담뱃불실화,0.01,대한민국 경기 성남 분당,37.3605706,127.1106485
2024,4,22,13:40,월,2024,4,22,15:41,충북,충북,충주,신니,문숭,기,기타(직접입력),낚시꾼실화추정(담뱃불),0.01,대한민국 충북 충주 신니,37.0020964,127.7406618
2024,4,19,21:21,금,2024,4,19,22:47,경기,경기,포천,화현,화현,기,기타(직접입력),불씨취급부주의,0.01,대한민국 경기 포천 화현,37.8985558,127.3024664
2024,4,18,16:12,목,2024,4,18,17:30,경기,경기,화성,서신,전곡,담,기타(직접입력),담뱃불실화,0.25,대한민국 경기 화성 서신,37.1694692,126.7050976
2024,4,14,18:42,일,2024,4,14,20:34,경기,경기,양주,은현,선암,입,기타(직접입력),입산자실화,0.06,대한민국 경기 양주 은현,37.8686013,127.0232139
2024,4,14,15:57,일,2024,4,14,19:00,강원,강원,홍천,내촌,문현,입,기타(직접입력),입산자실화,0.94,대한민국 강원 홍천 내촌,37.81543,128.08729
2024,4,14,11:09,일,2024,4,14,18:00,북부,경기,김포,월곶,조강,입,기타(직접입력),입산자실화,0.3,대한민국 경기 김포 월곶,37.7160337,126.5548863
2024,4,13,22:32,토,2024,4,14,0:23,충남,충남,홍성,은하,대율,입,기타(직접입력),입산자실화추정,0.03,대한민국 충남 홍성 은하,36.5291539,126.5893611
2024,4,13,16:55,토,2024,4,13,18:40,강원,강원,횡성,우천,용둔,담,담뱃불실화,담뱃불실화,0.71,대한민국 강원 횡성 우천,37.4612995,128.062255
2024,4,13,15:11,토,2024,4,13,18:57,경기,경기,파주,광탄,마장,기,기타(직접입력),재처리부주의,4.13,대한민국 경기 파주 광탄,37.781364,126.848291
2024,4,13,14:01,토,2024,4,13,15:15,전북,전북,무주,설천,기곡,입,기타(직접입력),입산자실화추정,0.38,대한민국 전북 무주 설천,36.0122451,127.7882931
2024,4,13,13:37,토,2024,4,13,15:31,경북,경북,청송,현서,모계,입,기타(직접입력),입산자실화추정,0.36,대한민국 경북 청송 현서,36.23422,128.91731
2024,4,13,11:26,토,2024,4,13,14:54,경기,경기,파주,탄현,금산,기,기타(직접입력),원인미상,0.33,대한민국 경기 파주 탄현,37.8042615,126.7186775
2024,4,13,11:15,토,2024,4,13,13:48,경북,경북,영천,임고,수성,입,기타(직접입력),입산실화추정,0.31,대한민국 경북 영천 임고,36.0209205,128.973087
2024,4,12,14:25,금,2024,4,12,16:50,중부,충북,단양,영춘,동대,입,기타(직접입력),입산자실화추정,0.06,대한민국 충북 단양 영춘,37.0802081,128.4831052
2024,4,12,12:52,금,2024,4,12,13:45,강원,강원,횡성,우천,하궁,기,성묘객실화,성묘객실화(담뱃불),0.12,대한민국 강원 횡성 우천,37.4612995,128.062255
2024,4,12,12:50,금,2024,4,12,13:56,경북,경북,경주,산내,일부,담,담뱃불실화,담뱃불실화,0.12,대한민국 경북 경주 산내,35.7576548,129.0472586
2024,4,8,17:18,월,2024,4,8,17:47,경기,경기,안산,단원,선부,기,기타(직접입력),어린이불장난,0.01,대한민국 경기 안산 단원,37.35009,126.822414
2024,4,8,12:47,월,2024,4,8,14:01,경기,경기,고양,덕양,내유,기,기타(직접입력),재처리부주의,0.01,대한민국 경기 고양 덕양,37.6568755,126.831451
2024,4,8,6:08,월,2024,4,8,11:00,경기,경기,성남,분당,백현,담,담뱃불실화,담뱃불실화,0.53,대한민국 경기 성남 분당,37.3605706,127.1106485
2024,4,7,14:27,일,2024,4,7,16:00,경기,경기,남양주,와부,율석,기,기타(직접입력),양봉훈연부주의,0.08,대한민국 경기 남양주 와부,37.5862797,127.2188793
2024,4,7,14:16,일,2024,4,7,15:30,강원,강원,양양,강현,정암,기,기타(직접입력),원인미상,0.09,대한민국 강원 양양 강현,38.149331,128.604082
2024,4,7,12:49,일,2024,4,7,13:21,경북,경북,상주,화남,평온,기,기타(직접입력),화목보일러재투기,0.09,대한민국 경북 상주 화남,36.4435325,127.8959083
2024,4,7,12:23,일,2024,4,7,13:46,강원,강원,횡성,횡성,송전,입,기타(직접입력),입산자실화,0.19,대한민국 강원 횡성 횡성,37.4828074,128.0104835
2024,4,7,10:54,일,2024,4,7,11:54,충북,충북,제천,청풍,교,기,작업장실화,양봉장실화추정,0.08,대한민국 충북 제천 청풍,36.9962642,128.165439
2024,4,7,10:32,일,2024,4,7,12:15,경기,경기,남양주,화도,답내,쓰,기타(직접입력),쓰레기소각,0.12,대한민국 경기 남양주 화도,37.6302005,127.3179009
2024,4,4,17:26,목,2024,4,4,19:00,경기,경기,남양주,진접,배양,쓰,기타(직접입력),쓰레기소각,0.28,대한민국 경기 남양주 진접,37.7200538,127.2032505
2024,4,2,15:23,화,2024,4,2,19:30,강원,강원,홍천,서,중방대,기,기타(직접입력),미상,2.4,대한민국 강원 홍천 서,37.67158,127.63637
2024,4,2,13:48,화,2024,4,2,17:00,경기,경기,포천,일동,유동,입,기타(직접입력),입산자실화,2.0,대한민국 경기 포천 일동,37.958362,127.318438
2024,4,2,12:05,화,2024,4,2,13:58,충북,충북,청주 상당,문의,후곡,,농산폐기물소각,농산부산물소각,0.6,대한민국 충북 청주 상당 문의,36.4969286,127.4794064
2024,4,2,12:05,화,2024,4,2,14:13,경기,경기,용인,수지,동천,기,작업장실화,산업현장실화,1.26,대한민국 경기 용인 수지,37.3307192,127.0920536
2024,4,2,11:10,화,2024,4,2,12:14,경기,경기,양평,서종,수입,쓰,기타(직접입력),쓰레기소각,0.06,대한민국 경기 양평 서종,37.609039,127.348047
2024,4,1,16:15,월,2024,4,1,17:53,경북,경북,예천,지보,도화,기,기타(직접입력),재투기,1.42,대한민국 경북 예천 지보,36.55224,128.39561
2024,4,1,14:11,월,2024,4,1,18:00,북부,경기,광주,초월,무갑,기,기타(직접입력),재처리부주의,1.2,대한민국 경기 광주 초월,37.3733591,127.2999508
2024,4,1,13:46,월,2024,4,1,16:00,경기,경기,남양주,진접,부평,담,기타(직접입력),담뱃불실화,0.6,대한민국 경기 남양주 진접,37.7200538,127.2032505
2024,3,25,4:47,월,2024,3,25,6:46,충북,충북,음성,금왕,용계,담,기타(직접입력),담뱃불실화추정,0.29,대한민국 충북 음성 금왕,36.9862352,127.5716381
2024,3,24,14:24,일,2024,3,24,15:43,경기,경기,연천,군남,황지,,농산폐기물소각,농산폐기물소각,0.34,대한민국 경기 연천 군남,38.067334,127.015837
2024,3,24,12:42,일,2024,3,24,15:00,경기,경기,화성,장안,장안,,기타(직접입력),농산폐기물소각(잡플),0.3,대한민국 경기 화성 장안,37.092921,126.8452033
2024,3,24,10:23,일,2024,3,24,17:15,경기,경기,안성,고삼,쌍지,담,담뱃불실화,담뱃불실화,4.53,대한민국 경기 안성 고삼,37.0703921,127.2962649
2024,3,23,13:29,토,2024,3,23,14:25,충남,충남,천안 동남,동,광덕,담,담뱃불실화,담뱃불실화,0.24,대한민국 충남 천안 동남 동,36.8067134,127.1516634
2024,3,23,12:54,토,2024,3,23,13:40,충남,충남,금산,남일,신천,기,기타(직접입력),용접불꽃부주의,0.08,대한민국 충남 금산 남일,36.0342262,127.5056363
2024,3,22,14:30,금,2024,3,22,15:41,충남,충남,청양,대치,이화,입,기타(직접입력),입산자실화,0.15,대한민국 충남 청양 대치,36.4476538,126.8581962
2024,3,22,13:32,금,2024,3,22,17:00,충남,충남,당진,석문,장고항,기,기타(직접입력),전기불비화(수목전도),0.49,대한민국 충남 당진 석문,37.0096458,126.5889323
2024,3,22,13:02,금,2024,3,22,18:00,전북,전북,무주,부남,고창,기,기타(직접입력),묘지소각추정,1.0,대한민국 전북 무주 부남,35.9729505,127.5594698
2024,3,22,12:34,금,2024,3,22,16:00,중부,충북,보은,속리산,북암,기,기타(직접입력),화목보일러재처리부주의,0.49,대한민국 충북 보은 속리산,36.5333074,127.8265805
2024,3,21,18:11,목,2024,3,21,19:15,충남,충남,예산,신양,대덕,,농산폐기물소각,농산부산물소각(콩대),0.08,대한민국 충남 예산 신양,36.60353,126.87385
2024,3,21,14:32,목,2024,3,21,17:06,경남,경남,거제,거제,옥산,입,기타(직접입력),입산자실화추정,0.02,대한민국 경남 거제 거제,34.888559,128.623199
2024,3,20,16:15,수,2024,3,20,19:25,전남,전남,해남,해남,남천,담,담뱃불실화,담뱃불실화,2.0,대한민국 전남 해남 해남,34.6369981,126.6372997
2024,3,20,13:48,수,2024,3,20,15:30,전북,전북,전주,덕진,산정,기,작업장실화,용접실화,0.82,대한민국 전북 전주 덕진,35.8293575,127.1338347
2024,3,20,10:46,수,2024,3,20,13:03,대구,대구,달성,하빈,묘,기,기타(직접입력),전선단락,0.09,대한민국 대구 달성 하빈,35.9012173,128.4420055
2024,3,20,9:41,수,2024,3,20,11:45,경기,경기,남양주,별내,용암,쓰,기타(직접입력),쓰레기소각,0.43,대한민국 경기 남양주 별내,37.642333,127.1276086
2024,3,20,8:40,수,2024,3,20,9:55,충남,충남,서산,인지,성,쓰,쓰레기소각,쓰레기소각,0.16,대한민국 충남 서산 인지,36.7557505,126.4256558
2024,3,20,1:20,수,2024,3,20,7:20,경남,경남,양산,원동,내포,기,기타(직접입력),전기스파크,0.98,대한민국 경남 양산 원동,35.3624248,128.9207978
2024,3,19,18:57,화,2024,3,19,22:44,전남,전남,강진,성전,영풍,담,담뱃불실화,담뱃불실화,0.2,대한민국 전남 강진 성전,34.69864,126.71623
2024,3,19,17:37,화,2024,3,19,19:19,전북,전북,남원,산내,중황,입,기타(직접입력),입산자실화추정,0.05,대한민국 전북 남원 산내,35.40046,127.61642
2024,3,19,16:08,화,2024,3,19,17:04,경기,경기,화성,양감,대양,기,기타(직접입력),원인미상,0.05,대한민국 경기 화성 양감,37.0815708,126.9455851
2024,3,19,14:39,화,2024,3,19,15:40,경기,경기,성남,수정,심곡,담,담뱃불실화,담뱃불실화,0.05,대한민국 경기 성남 수정,37.4332944,127.1304923
2024,3,18,15:58,월,2024,3,19,1:10,북부,경기,광주,초월,무갑,기,기타(직접입력),재처리부주의,2.77,대한민국 경기 광주 초월,37.3733591,127.2999508
2024,3,18,15:55,월,2024,3,18,17:39,경기,경기,양평,양동,단석,쓰,기타(직접입력),쓰레기소각,0.39,대한민국 경기 양평 양동,37.4202671,127.7547601
2024,3,18,14:30,월,2024,3,18,15:50,경남,경남,거창,웅양,산포,,농산폐기물소각,농산폐기물소각,0.97,대한민국 경남 거창 웅양,35.803051,127.915954
2024,3,18,14:10,월,2024,3,18,16:00,전북,전북,순창,인계,쌍암,쓰,기타(직접입력),쓰레기소각,0.54,대한민국 전북 순창 인계,35.42061,127.16134
2024,3,17,19:41,일,2024,3,17,21:05,대구,대구,군위,부계,달산,기,기타(직접입력),불씨취급부주의,0.06,대한민국 대구 군위 부계,36.101096,128.6634176
2024,3,17,15:55,일,2024,3,17,18:30,경기,경기,포천,영중,금주,,기타(직접입력),주택화재비화,0.5,대한민국 경기 포천 영중,38.0004613,127.2450827
2024,3,17,13:36,일,2024,3,17,18:17,전남,전남,순천,별량,대룡,쓰,기타(직접입력),쓰레기소각,2.09,대한민국 전남 순천 별량,34.86599,127.44284
2024,3,16,21:34,토,2024,3,16,22:30,경기,경기,용인 처인,백암,옥산,쓰,기타(직접입력),쓰레기소각,0.16,대한민국 경기 용인 처인 백암,37.1606781,127.3640013
2024,3,16,15:42,토,2024,3,16,17:30,경기,경기,파주,파평,덕천,쓰,기타(직접입력),쓰레기소각,0.07,대한민국 경기 파주 파평,37.92038,126.83832
2024,3,16,14:27,토,2024,3,16,18:10,전북,전북,임실,청웅,향교,기,작업장실화,산림사업장실화,4.0,대한민국 전북 임실 청웅,35.56731,127.21029
2024,3,16,12:04,토,2024,3,16,13:00,경남,경남,산청,단성,길,기,기타(직접입력),재처리부주의,0.15,대한민국 경남 산청 단성,35.297069,127.956132
2024,3,15,15:45,금,2024,3,15,17:00,전북,전북,장수,장계,야동,기,기타(직접입력),불씨취급(재투기)부주의 추정,0.19,대한민국 전북 장수 장계,35.7318229,127.5811959
2024,3,15,15:24,금,2024,3,15,16:00,강원,강원,정선,정선,덕송,쓰,쓰레기소각,생활쓰레기소각,0.07,대한민국 강원 정선 정선,37.3879456,128.6726322
2024,3,14,13:21,목,2024,3,14,14:50,세종,세종,금남,,봉암,기,기타(직접입력),불씨관리부주의(재투기),0.06,대한민국 세종 금남 nan,36.4607279,127.3028691
2024,3,14,11:53,목,2024,3,14,12:30,충남,충남,천안 동남,수신,해정,,농산폐기물소각,농산폐기물소각,0.04,대한민국 충남 천안 동남 수신,36.7452768,127.2894015
2024,3,14,11:23,목,2024,3,14,12:24,충남,충남,천안 동남,수신,신풍,,농산폐기물소각,농산폐기물소각,0.03,대한민국 충남 천안 동남 수신,36.7452768,127.2894015
2024,3,13,18:01,수,2024,3,13,19:45,경남,경남,창녕,도천,우강,,농산폐기물소각,농산폐기물소각,0.25,대한민국 경남 창녕 도천,35.41994,128.52729
2024,3,13,13:57,수,2024,3,13,14:31,경남,경남,산청,삼장,석남,기,기타(직접입력),재처리부주의,0.08,대한민국 경남 산청 삼장,35.33134,127.81981
2024,3,11,11:01,월,2024,3,11,11:49,충북,충북,괴산,감물,구월,쓰,기타(직접입력),쓰레기소각,0.14,대한민국 충북 괴산 감물,36.8467244,127.8835208
2024,3,10,15:34,일,2024,3,10,17:00,경기,경기,안산,단원,대부동,쓰,기타(직접입력),쓰레기소각,0.03,대한민국 경기 안산 단원,37.35009,126.822414
2024,3,10,14:38,일,2024,3,10,16:40,충남,충남,공주,정안,문천,,논밭두렁소각,밭두렁소각,0.29,대한민국 충남 공주 정안,36.5964474,127.1025991
2024,3,9,13:36,토,2024,3,9,15:35,경기,경기,양평,양평,백안,담,담뱃불실화,담뱃불실화,0.5,대한민국 경기 양평 양평,37.4928474,127.4918972
2024,3,9,13:00,토,2024,3,9,13:40,경남,경남,사천,용현,석계,기,기타(직접입력),성묘객실화,0.01,대한민국 경남 사천 용현,35.02061,128.0626
2024,3,9,12:59,토,2024,3,9,13:55,충북,충북,음성,삼성,천평,쓰,기타(직접입력),쓰레기소각,0.22,대한민국 충북 음성 삼성,37.0235591,127.4958277
2024,3,9,12:57,토,2024,3,9,14:40,충남,충남,서천,마산,시선,쓰,쓰레기소각,생활쓰레기(휴지)소각,0.21,대한민국 충남 서천 마산,36.120502,126.795058
2024,3,9,12:01,토,2024,3,9,13:15,경기,경기,화성,매송,야목,,기타(직접입력),농산폐기물소각,0.1,대한민국 경기 화성 매송,37.2647244,126.8884091
2024,3,8,18:44,금,2024,3,8,19:28,경기,경기,화성,팔탄,노하,담,담뱃불실화,담뱃불실화,0.01,대한민국 경기 화성 팔탄,37.1896737,126.8642644
2024,3,6,20:09,수,2024,3,6,21:50,경기,경기,하남,,감이,담,담뱃불실화,담뱃불실화,0.07,대한민국 경기 하남 nan,37.5397035,127.2235329
2024,3,4,13:43,월,2024,3,4,18:10,중부,충남,금산,제원,동곡,기,기타(직접입력),조사중,1.1,대한민국 충남 금산 제원,36.1276554,127.555505
2024,3,3,17:57,일,2024,3,3,19:45,충북,충북,청주 상당,낭성,이목,쓰,기타(직접입력),쓰레기소각,0.16,대한민국 충북 청주 상당 낭성,36.6222756,127.6028405
2024,2,17,17:03,토,2024,2,17,18:33,경북,경북,의성,다인,봉정,입,기타(직접입력),입산자실화,0.3,대한민국 경북 의성 다인,36.4489959,128.3576008
2024,2,14,17:41,수,2024,2,15,2:30,경기,경기,남양주,진접,내곡,기,기타(직접입력),미상,3.0,대한민국 경기 남양주 진접,37.7200538,127.2032505
2024,2,13,15:36,화,2024,2,13,17:13,경기,경기,화성,매송,송라,,기타(직접입력),농산부산물소각,0.13,대한민국 경기 화성 매송,37.2647244,126.8884091
2024,2,13,14:18,화,2024,2,13,15:10,충북,충북,청주 상당,남일,고은,쓰,기타(직접입력),쓰레기소각,0.03,대한민국 충북 청주 상당 남일,36.5657798,127.5100802
2024,2,12,13:02,월,2024,2,12,15:25,전남,전남,나주,다도,판촌,,기타(직접입력),농산부산물소각,0.2,대한민국 전남 나주 다도,34.9151535,126.8583853
2024,2,12,12:58,월,2024,2,12,14:20,경기,경기,가평,청평,상천,쓰,기타(직접입력),쓰레기소각,0.2,대한민국 경기 가평 청평,37.735508,127.4266359
2024,2,9,14:38,금,2024,2,9,16:15,경기,경기,용인 처인,원삼,사암,기,기타(직접입력),벌집채취훈증부주의,0.06,대한민국 경기 용인 처인 원삼,37.1635327,127.3157031
2024,2,4,13:33,일,2024,2,4,14:55,경기,경기,가평,청평,삼회,기,기타(직접입력),미상,0.07,대한민국 경기 가평 청평,37.735508,127.4266359
2024,1,30,13:14,화,2024,1,30,14:05,경북,경북,청도,청도,원정,쓰,기타(직접입력),쓰레기소각,0.08,대한민국 경북 청도 청도,35.6398546,128.7461654
2024,1,30,12:27,화,2024,1,30,14:07,경기,경기,이천,신둔,용면,기,기타(직접입력),재처리부주의,0.5,대한민국 경기 이천 신둔,37.30978,127.40321
2024,1,24,15:36,수,2024,1,24,16:00,경기,경기,파주,법원,대능,기,작업장실화,용접작업불씨부주의,0.02,대한민국 경기 파주 법원,37.8315143,126.8711299
2024,1,24,14:50,수,2024,1,24,22:00,전남,전남,광양,봉강,조령,,주택화재비화,창고누전,0.05,대한민국 전남 광양 봉강,35.02673,127.57056
2024,1,15,14:18,월,2024,1,15,19:30,전남,전남,고흥,금산,어전,담,기타(직접입력),담뱃불추정,0.3,대한민국 전남 고흥 금산,34.462446,127.129219
2024,1,12,20:15,금,2024,1,12,22:39,경북,경북,영천,고경,삼포,,주택화재비화,주택화재비화,0.1,대한민국 경북 영천 고경,36.003045,129.0683357
2024,1,8,12:10,월,2024,1,8,15:15,전남,전남,해남,화원,인지,,논밭두렁소각,밭두렁소각,0.1,대한민국 전남 해남 화원,34.68931,126.30737
2024,1,8,0:13,월,2024,1,8,7:00,부산,부산,기장,철마,웅천,기,기타(직접입력),농막물탱크코일과열,0.12,대한민국 부산 기장 철마,35.274794,129.150785
2023,12,27,14:57,수,2223,12,27,18:00,경남,경남,밀양,삼랑진,행곡,,농산폐기물소각,농산부산물소각,0.2,대한민국 경남 밀양 삼랑진,35.3990296,128.8438715
2023,12,27,12:59,수,2023,12,27,13:38,경북,경북,울진,울진,명도,쓰,쓰레기소각,쓰레기소각,0.02,대한민국 경북 울진 울진,36.993,129.4006
2023,12,26,12:21,화,2023,12,26,13:40,울산,울산,울주,온산,삼평,기,기타(직접입력),아궁이재투기추정,0.3,대한민국 울산 울주 온산,35.4259578,129.3507297
2023,12,9,14:36,토,2023,12,9,15:36,경북,경북,상주,화남,중눌,기,기타(직접입력),전선단락,0.07,대한민국 경북 상주 화남,36.4435325,127.8959083
2023,12,9,12:52,토,2023,12,9,15:00,충남,충남 ,서산,해미,황락,기,기타(직접입력),미상,0.01,대한민국 충남  서산 해미,36.7175368,126.5432623
2023,12,8,10:50,금,2023,12,8,11:53,전남,전남,해남,북일,운전,입,기타(직접입력),입산자실화,0.01,대한민국 전남 해남 북일,34.45664,126.68164
2023,12,7,12:32,목,2023,12,7,13:56,남부,경북,영주,풍기,전구,기,낙뢰,낙뢰,0.02,대한민국 경북 영주 풍기,36.8740554,128.5234721
2023,12,7,11:06,목,2023,12,7,13:37,충북,충북,제천,금성,중전,기,낙뢰,낙뢰추정,0.03,대한민국 충북 제천 금성,37.0619724,128.1674873
2023,12,7,9:17,목,2023,12,7,11:30,경남,경남,고성,동해,외산,입,기타(직접입력),입산자실화추정,0.01,대한민국 경남 고성 동해,35.03746,128.397
2023,12,4,15:05,월,2023,12,4,18:00,경기,경기,광주,남한산성,오전,입,기타(직접입력),입산자실화,0.2,대한민국 경기 광주 남한산성,37.4791368,127.1801588
2023,12,4,13:39,월,2023,12,4,15:14,강원,강원,양양,현남,전포매,입,기타(직접입력),입산자실화추정,0.26,대한민국 강원 양양 현남,37.9536647,128.7695801
2023,12,3,12:19,일,2023,12,3,13:35,전북,전북,완주,고산,양야,쓰,기타(직접입력),쓰레기소각추정,0.01,대한민국 전북 완주 고산,35.9788757,127.2042669
2023,12,3,12:10,일,2023,12,3,12:27,세종,세종,,금남,남곡,기,기타(직접입력),화기물취급부주의,0.05,대한민국 세종 nan 금남,36.4607279,127.3028691
2023,12,3,10:09,일,2023,12,3,12:21,경북,경북,성주,용암,운산,기,방화,방화,0.2,대한민국 경북 성주 용암,35.84581,128.3182
2023,12,2,11:39,토,2023,12,2,12:59,강원,강원,홍천,남,유목정,기,기타(직접입력),산불감시탑화재비화,0.02,대한민국 강원 홍천 남,37.6182116,127.7676638
2023,12,1,14:22,금,2023,12,1,15:30,강원,강원,양양,현남,원포,기,기타(직접입력),재처리부주의추정,0.02,대한민국 강원 양양 현남,37.9536647,128.7695801
2023,11,30,11:40,목,2023,11,30,15:30,경북,경북,경산,와촌,대한,쓰,쓰레기소각,쓰레기(낙엽)소각,0.3,대한민국 경북 경산 와촌,35.95022,128.81517
2023,11,28,10:29,화,2023,11,28,12:30,경남,경남,밀양,초동,덕산,,기타(직접입력),농막화재추정,0.21,대한민국 경남 밀양 초동,35.4212389,128.6728139
2023,11,27,8:28,월,2023,11,27,10:17,경북,경북,울진,울진,대흥,,주택화재비화,주택화재비화,0.04,대한민국 경북 울진 울진,36.993,129.4006
2023,11,26,8:07,일,2023,11,26,9:30,울산,울산,울주,서생,화산,입,기타(직접입력),입산자실화,0.01,대한민국 울산 울주 서생,35.345588,129.2928624
2023,11,23,21:01,목,2023,11,23,22:25,경북,경북,봉화,물야,북지,,주택화재비화,가옥화재비화,0.1,대한민국 경북 봉화 물야,36.97697,128.735148
2023,11,21,20:05,화,2023,11,22,3:00,충남,충남,천안 동남,병천,봉항,입,기타(직접입력),입산자실화,1.85,대한민국 충남 천안 동남 병천,36.7622798,127.3000613
2023,11,20,12:43,월,2023,11,20,17:01,남부,경북,봉화,소천,두음,기,기타(직접입력),전선단락,0.72,대한민국 경북 봉화 소천,36.980028,128.657778
2023,11,18,18:39,토,2023,11,18,19:20,강원,강원,고성,죽왕,구성,,주택화재비화,가옥화재,0.03,대한민국 강원 고성 죽왕,38.3298445,128.5242287
2023,11,17,16:24,금,2023,11,17,17:15,경기,경기,용인 처인,모현,능원,,주택화재비화,창고화재비화,0.01,대한민국 경기 용인 처인 모현,37.3083034,127.242826
2023,11,13,14:56,월,2023,11,13,15:51,북부,경기,양평,청운,도원,기,기타(직접입력),재처리부주의,0.13,대한민국 경기 양평 청운,37.552611,127.712092
2023,11,13,13:25,월,2023,11,13,16:41,충남,충남,서산,대산,오지,입,기타(직접입력),입산자실화추정,0.08,대한민국 충남 서산 대산,36.997539,126.374201
2023,11,12,8:19,일,2023,11,12,12:10,서부,전남,완도,보길,부황,,기타(직접입력),암자화재,0.01,대한민국 전남 완도 보길,34.15257,126.55162
2023,11,9,15:41,목,2023,11,9,16:31,강원,강원,홍천,북방,굴지,,주택화재비화,축사 화재비화,0.05,대한민국 강원 홍천 북방,37.709649,127.861274
2023,11,8,13:08,수,2023,11,8,13:50,충북,충북,영동,영동,화신,입,기타(직접입력),입산자실화추정,0.02,대한민국 충북 영동 영동,36.1726667,127.7858142
2023,10,29,16:53,일,2023,10,29,18:23,충남,충남,서산,대산,기은,쓰,기타(직접입력),쓰레기소각,0.01,대한민국 충남 서산 대산,36.997539,126.374201
2023,10,27,6:48,금,2023,10,27,15:01,충남,충남,서산,대산,오지,입,기타(직접입력),입산자실화,0.27,대한민국 충남 서산 대산,36.997539,126.374201
2023,10,24,12:30,화,2023,10,24,15:00,남부,경북,영주,순흥,덕현,입,기타(직접입력),입산자실화,0.01,대한민국 경북 영주 순흥,36.914633,128.575906
2023,10,18,17:12,수,2023,10,19,1:04,경북,경북,청송,부남,화장,입,기타(직접입력),입산자실화추정,0.06,대한민국 경북 청송 부남,36.3142382,129.0940225
2023,10,18,16:11,수,2023,10,18,19:10,전북,전북,진안,용담,송풍,입,기타(직접입력),입산자실화추정,0.4,대한민국 전북 진안 용담,35.9476879,127.4884677
2023,10,11,13:30,수,2023,10,11,15:19,중부,충북,보은,회남,은운,입,기타(직접입력),입산자실화추정,0.11,대한민국 충북 보은 회남,36.4457986,127.5796393
2023,10,5,9:55,목,2023,10,6,0:40,인천,인천,옹진,대청,대청,기,기타(직접입력),미상,0.49,대한민국 인천 옹진 대청,37.8253203,124.7139865
2023,9,10,12:16,일,2023,9,10,12:50,부산,부산,기장,기장,만화,기,성묘객실화,영정사진추가,0.01,대한민국 부산 기장 기장,35.2444351,129.2188738
2023,8,20,12:45,일,2023,8,20,18:00,전남,전남,해남,화원,산호,기,기타(직접입력),태양광시설전기적결함추정,0.1,대한민국 전남 해남 화원,34.68931,126.30737
2023,6,19,14:45,월,2023,6,19,16:50,강원,강원,춘천,남산,산수,기,기타(직접입력),불씨취급부주의,0.13,대한민국 강원 춘천 남산,37.782624,127.6374167
2023,6,18,16:39,일,2023,6,18,19:40,경남,경남,함안,군북,사촌,입,기타(직접입력),입산자실화추정,0.05,대한민국 경남 함안 군북,35.2522152,128.3519909
2023,6,18,12:37,일,2023,6,18,13:39,강원,강원,양양,현남,주,쓰,기타(직접입력),쓰레기소각,0.09,대한민국 강원 양양 현남,37.9536647,128.7695801
2023,6,15,16:39,목,2023,6,15,18:25,전북,전북,남원,산동,대상,입,기타(직접입력),입산자실화추정,0.05,대한민국 전북 남원 산동,35.49311,127.47316
2023,6,14,13:52,수,2023,6,14,17:00,경남,경남,하동,화개,삼신,입,기타(직접입력),입산자(담뱃불)실화,0.03,대한민국 경남 하동 화개,35.199895,127.630599
2023,6,13,12:51,화,2023,6,13,17:00,충남,충남,천안 동남,병천,도원,입,기타(직접입력),입산자실화,0.06,대한민국 충남 천안 동남 병천,36.7622798,127.3000613
2023,6,12,15:39,월,2023,6,12,18:30,충남,충남,논산,양촌,산직,담,기타(직접입력),담뱃불실화,0.02,대한민국 충남 논산 양촌,36.1419772,127.234595
2023,6,3,16:57,토,2023,6,3,19:28,경기,경기,포천,이동,장암,입,기타(직접입력),입산자실화,0.01,대한민국 경기 포천 이동,38.0354366,127.3666019
2023,5,27,12:28,토,2023,5,27,13:33,강원,강원,정선,정선,봉양,입,기타(직접입력),입산자실화추정,0.02,대한민국 강원 정선 정선,37.3879456,128.6726322
2023,5,26,22:16,금,2023,5,27,9:00,동부,강원,평창,대화,대화,입,기타(직접입력),입산자실화추정,0.6,대한민국 강원 평창 대화,37.3448743,127.9306119
2023,5,26,15:07,금,2023,5,26,16:20,강원,강원,원주,소초,평장,쓰,기타(직접입력),쓰레기소각,0.09,대한민국 강원 원주 소초,37.4176053,128.0036709
2023,5,25,14:37,목,2023,5,25,16:37,경기,경기,포천,영중,금주,담,기타(직접입력),담뱃불실화,0.03,대한민국 경기 포천 영중,38.0004613,127.2450827
2023,5,25,12:48,목,2023,5,25,14:25,전북,전북,장수,장계,송천,기,기타(직접입력),고속도로차량화재,0.05,대한민국 전북 장수 장계,35.7318229,127.5811959
2023,5,23,16:52,화,2023,5,23,20:00,북부,강원,횡성,서원,창촌,기,기타(직접입력),용접화재(축사),0.6,대한민국 강원 횡성 서원,37.4902574,127.8529234
2023,5,23,14:43,화,2023,5,23,15:50,경기,경기,고양,덕양,용두,쓰,기타(직접입력),쓰레기소각,0.1,대한민국 경기 고양 덕양,37.6568755,126.831451
2023,5,23,13:39,화,2023,5,23,14:39,경북,경북,청도,이서,흥선,기,기타(직접입력),성묘객실화,0.06,대한민국 경북 청도 이서,35.676653,128.6786577
2023,5,17,16:36,수,2023,5,17,17:40,세종,세종,금남,,용포,입,기타(직접입력),입산자실화추정,0.02,대한민국 세종 금남 nan,36.4607279,127.3028691
2023,5,17,11:20,수,2023,5,17,13:00,강원,강원,평창,대화,대화,담,기타(직접입력),담뱃불실화,0.3,대한민국 강원 평창 대화,37.3448743,127.9306119
2023,5,16,14:35,화,2023,5,16,17:00,충남,충남,청양,장평,적곡,입,기타(직접입력),입산자실화,0.03,대한민국 충남 청양 장평,36.345946,126.898754
2023,5,10,16:12,수,2023,5,10,17:17,경기,경기,연천,전곡,간파,기,기타(직접입력),미상,0.01,대한민국 경기 연천 전곡,38.0245987,127.0718642
2023,5,10,11:55,수,2023,5,10,14:30,강원,강원,화천,사내,사창,기,기타(직접입력),미상,0.16,대한민국 강원 화천 사내,38.064475,127.519577
2023,5,4,15:38,목,2023,5,4,18:38,강원,강원,정선,화암,화암,입,기타(직접입력),입산자실화추정,1.1,대한민국 강원 정선 화암,37.341764,128.7950441
2023,5,4,15:07,목,2023,5,4,16:08,충북,충북,영동,학산,봉소,입,기타(직접입력),입산자실화추정,0.08,대한민국 충북 영동 학산,36.0984833,127.6837462
2023,5,3,16:28,수,2023,5,3,17:50,강원,강원,영월,한반도,쌍용,기,기타(직접입력),미상,0.3,대한민국 강원 영월 한반도,37.1879032,128.3746674
2023,5,3,14:09,수,2023,5,3,16:20,경기,경기,연천,전곡,간파,쓰,기타(직접입력),쓰레기소각,0.1,대한민국 경기 연천 전곡,38.0245987,127.0718642
2023,5,3,13:55,수,2023,5,3,19:10,강원,강원,영월,김삿갓,예밀,,기타(직접입력),밭두렁소각,1.4,대한민국 강원 영월 김삿갓,37.0844417,128.6012452
2023,5,3,12:51,수,2023,5,3,18:00,충남,충남,부여,홍산,토정,입,기타(직접입력),입산자실화추정,3.0,대한민국 충남 부여 홍산,36.3199,126.83169
2023,4,28,15:16,금,2023,4,28,20:00,중부,충북,청주 상당,미원,월용,입,기타(직접입력),입산자실화추정,1.25,대한민국 충북 청주 상당 미원,36.6362438,127.6607983
2023,4,28,14:38,금,2023,4,28,15:54,경기,경기,여주,흥천,복대,담,기타(직접입력),담뱃불실화,0.03,대한민국 경기 여주 흥천,37.326741,127.555288
2023,4,27,14:17,목,2023,4,27,17:07,충남,충남,서산,대산,기은,기,기타(직접입력),전기누전,0.07,대한민국 충남 서산 대산,36.997539,126.374201
2023,4,27,11:40,목,2023,4,27,17:30,전북,전북,진안,동향,신송,기,기타(직접입력),비닐하우스화재비화,1.0,대한민국 전북 진안 동향,35.839653,127.566334
2023,4,24,16:49,월,2023,4,24,18:00,남부,경남,양산,원동,화제,입,기타(직접입력),입산자실화,0.04,대한민국 경남 양산 원동,35.3624248,128.9207978
2023,4,24,13:34,월,2023,4,24,14:39,경남,경남,진주,대곡,대곡,쓰,기타(직접입력),쓰레기소각(낙엽),0.05,대한민국 경남 진주 대곡,35.3397785,128.1394443
2023,4,24,10:01,월,2023,4,24,12:00,전북,전북,군산,,미룡,입,기타(직접입력),입산자실화추정,0.01,대한민국 전북 군산 nan,35.9910529,126.7112824
2023,4,24,6:22,월,2023,4,24,7:40,충북,충북,음성,맹동,두성,입,기타(직접입력),입산자실화추정,0.08,대한민국 충북 음성 맹동,36.9227101,127.5566228
2023,4,23,19:21,일,2023,4,23,22:10,경북,경북,영양,입암,교,입,기타(직접입력),입산자실화,0.13,대한민국 경북 영양 입암,36.5966127,129.0889488
2023,4,23,10:24,일,2023,4,23,12:13,경남,경남,거제,거제,소랑,쓰,쓰레기소각,생활쓰레기소각,0.05,대한민국 경남 거제 거제,34.888559,128.623199
2023,4,23,9:47,일,2023,4,23,11:30,강원,강원,원주,소초,둔둔,입,기타(직접입력),입산자실화,0.17,대한민국 강원 원주 소초,37.4176053,128.0036709
2023,4,22,17:32,토,2023,4,22,19:00,전남,전남,장흥,부산,호계,입,기타(직접입력),입산자실화추정,0.01,대한민국 전남 장흥 부산,34.7301,126.90625
2023,4,22,16:05,토,2023,4,22,18:55,충남,충남,부여,내산,운치,기,기타(직접입력),차량화재비화,0.33,대한민국 충남 부여 내산,36.2813846,126.7774046
2023,4,22,15:15,토,2023,4,22,17:20,경기,경기,연천,군남,왕림,기,기타(직접입력),미상,0.1,대한민국 경기 연천 군남,38.067334,127.015837
2023,4,22,10:33,토,2023,4,22,11:40,충남,충남,태안,안면,중장,입,기타(직접입력),입산자실화,0.01,대한민국 충남 태안 안면,36.5057028,126.3704572
2023,4,20,14:50,목,2023,4,20,20:45,경북,경북,청송,주왕산,주산지,기,낙뢰,낙뢰,0.37,대한민국 경북 청송 주왕산,36.3790715,129.1407079
2023,4,16,14:45,일,2023,4,16,18:00,경기,경기,광주,남송,귀여,,기타(직접입력),비닐하우스화재비화,0.03,대한민국 경기 광주 남송,37.3746177,127.2346909
2023,4,16,13:54,일,2023,4,16,15:52,강원,강원,정선,신동,예미,입,기타(직접입력),입산자실화추정,0.01,대한민국 강원 정선 신동,37.2157713,128.6703976
2023,4,13,13:59,목,2023,4,13,15:00,울산,울산,울주,두서,차,입,기타(직접입력),입산자실화추정,0.2,대한민국 울산 울주 두서,35.6689239,129.1718294
2023,4,13,13:43,목,2023,4,13,15:10,경남,경남,함양,서하,황산,기,작업장실화,산업현장 실화,0.05,대한민국 경남 함양 서하,35.63224,127.72244
2023,4,13,13:21,목,2023,4,13,16:50,경북,경북,문경,호계,지천,,농산폐기물소각,농산폐기물소각,1.72,대한민국 경북 문경 호계,36.6320412,128.2060607
2023,4,13,10:22,목,2023,4,13,11:10,충북,충북,영동,영동,가,담,기타(직접입력),담뱃불실화,0.01,대한민국 충북 영동 영동,36.1726667,127.7858142
2023,4,12,13:50,수,2023,4,12,15:30,전남,전남,장흥,안양,수문,입,기타(직접입력),입산자실화추정,0.1,대한민국 전남 장흥 안양,34.65146,126.99224
2023,4,12,11:02,수,2023,4,12,11:59,충남,충남,금산,남일,신동,기,기타(직접입력),데크용접발화,0.01,대한민국 충남 금산 남일,36.0342262,127.5056363
2023,4,12,5:31,수,2023,4,12,9:40,남부,경남,양산,원동,원,입,기타(직접입력),입산자실화,0.3,대한민국 경남 양산 원동,35.3624248,128.9207978
2023,4,11,16:25,화,2023,4,11,17:50,경북,경북,경주,외동,문산,입,기타(직접입력),입산자실화,0.04,대한민국 경북 경주 외동,35.7169413,129.3259176
2023,4,10,14:10,월,2023,4,10,15:47,경기,경기,화성,향남,수직,담,기타(직접입력),담뱃불실화,0.13,대한민국 경기 화성 향남,37.122899,126.9127815
2023,4,9,14:15,일,2023,4,9,16:30,동부,강원,평창,미탄,창,입,기타(직접입력),입산자실화추정,1.1,대한민국 강원 평창 미탄,37.3419849,128.5004681
2023,4,4,19:44,화,2023,4,4,21:40,경기,경기,고양,일산동,사리현,,주택화재비화,공장화재비화,0.03,대한민국 경기 고양 일산동,37.6816091,126.7726954
2023,4,4,15:17,화,2023,4,4,17:00,충남,충남,서천,비인,율,담,기타(직접입력),담뱃불실화(벌목인부),0.22,대한민국 충남 서천 비인,36.1468286,126.6172752
2023,4,4,14:20,화,2023,4,4,17:00,전남,전남,함평,손불,학산,입,기타(직접입력),입산자실화추정,0.5,대한민국 전남 함평 손불,35.1452407,126.433453
2023,4,4,11:51,화,2023,4,4,13:38,경기,경기,화성,남양,남양,기,기타(직접입력),성묘객실화,0.09,대한민국 경기 화성 남양,37.2043933,126.8252211
2023,4,3,21:39,월,2023,4,4,0:00,충남,충남,천안,동남,용곡,입,기타(직접입력),입산자실화,0.27,대한민국 충남 천안 동남,36.8067134,127.1516634
2023,4,3,17:20,월,2023,4,4,13:00,충남,충남,금산,남이,역평,입,기타(직접입력),입산자실화(임산물채취),3.92,대한민국 충남 금산 남이,36.0476141,127.429607
2023,4,3,14:47,월,2023,4,3,16:00,경기,경기,용인 처인,양지,주북,기,기타(직접입력),성묘객실화,0.66,대한민국 경기 용인 처인 양지,37.2388614,127.2967202
2023,4,3,14:15,월,2023,4,4,3:00,경기,경기,광주,초월,학동,입,기타(직접입력),입산자실화,0.8,대한민국 경기 광주 초월,37.3733591,127.2999508
2023,4,3,14:15,월,2023,4,4,18:00,경북,경북,영주,평은,오운,기,기타(직접입력),양봉장훈증불씨부주의,244.5,대한민국 경북 영주 평은,36.761343,128.688969
2023,4,3,13:33,월,2023,4,3,15:00,충남,충남,아산,선장,선창,담,기타(직접입력),담뱃불실화,0.09,대한민국 충남 아산 선장,36.7684699,126.8848637
2023,4,3,13:07,월,2023,4,3,14:50,강원,강원,영월,김삿갓,예밀,기,작업장실화,산업현장실화,0.8,대한민국 강원 영월 김삿갓,37.0844417,128.6012452
2023,4,3,13:02,월,2023,4,4,17:15,전남,전남,순천,송광,봉산,기,작업장실화,건설현장실화추정,188.35,대한민국 전남 순천 송광,34.99053,127.24576
2023,4,3,12:19,월,2023,4,4,18:00,전남,전남,함평,대동,연암,쓰,쓰레기소각,쓰레기소각(양봉장)추정,681.72,대한민국 전남 함평 대동,35.0754387,126.5439106
2023,4,3,12:18,월,2023,4,4,21:00,경기,경기,남양주,와부,팔당,기,기타(직접입력),미상,27.0,대한민국 경기 남양주 와부,37.5862797,127.2188793
2023,4,2,19:45,일,2023,4,2,23:30,경기,경기,파주,광탄,마장,기,기타(직접입력),미상,0.16,대한민국 경기 파주 광탄,37.781364,126.848291
2023,4,2,17:19,일,2023,4,2,18:10,경남,경남,함양,안의,당본,입,기타(직접입력),입산자실화추정,0.02,대한민국 경남 함양 안의,35.629181,127.809347
2023,4,2,16:15,일,2023,4,4,14:00,전남,전남,고흥,금산,어전,기,기타(직접입력),전기합선(태양광배전판),2.0,대한민국 전남 고흥 금산,34.462446,127.129219
2023,4,2,15:52,일,2023,4,2,18:00,충남,충남,홍성,금마,월암,기,작업장실화,용접작업(축사),0.16,대한민국 충남 홍성 금마,36.6207883,126.7230648
2023,4,2,15:36,일,2023,4,2,17:51,전남,전남,강진,대구,저두,입,기타(직접입력),입산자실화추정,0.1,대한민국 전남 강진 대구,34.51063,126.81343
2023,4,2,15:29,일,2023,4,3,14:10,전북,전북,고창,상하,송곡,,농산폐기물소각,농산폐기물소각,4.0,대한민국 전북 고창 상하,35.44301,126.48008
2023,4,2,15:03,일,2023,4,3,0:15,충남,충남,부여,세도,동사,담,기타(직접입력),담뱃불실화추정,24.04,대한민국 충남 부여 세도,36.166885,126.9436117
2023,4,2,14:47,일,2023,4,2,21:40,경북,경북,성주,용암,대봉,입,기타(직접입력),입산자실화추정,0.98,대한민국 경북 성주 용암,35.84581,128.3182
2023,4,2,14:45,일,2023,4,2,16:30,전북,전북,김제,금구,청운,담,기타(직접입력),담뱃불실화추정,0.05,대한민국 전북 김제 금구,35.7743344,127.0111221
2023,4,2,14:30,일,2023,4,2,18:00,강원,강원,원주,지정,안창,기,기타(직접입력),불씨취급부주의,1.61,대한민국 강원 원주 지정,37.3658379,127.8386273
2023,4,2,13:11,일,2023,4,2,17:50,충남,충남,서산,성연,일람,쓰,쓰레기소각,쓰레기소각,8.06,대한민국 충남 서산 성연,36.8240576,126.4489808
2023,4,2,12:10,일,2023,4,2,13:35,충북,충북,제천,청풍,도화,기,기타(직접입력),성묘객실화,0.8,대한민국 충북 제천 청풍,36.9962642,128.165439
2023,4,2,11:56,일,2023,4,2,17:45,경기,경기,남양주,와부,율석,기,기타(직접입력),성묘객실화,3.86,대한민국 경기 남양주 와부,37.5862797,127.2188793
2023,4,2,11:19,일,2023,4,4,17:00,충남,충남,당진,대호지,사성,입,기타(직접입력),입산자실화,98.54,대한민국 충남 당진 대호지,36.90247,126.51549
2023,4,2,11:00,일,2023,4,2,16:30,경기,경기,양평,지평,망미,기,기타(직접입력),미상,3.0,대한민국 경기 양평 지평,37.47681,127.6290656
2023,4,2,11:00,일,2023,4,4,16:41,충남,충남,홍성,서부,중,담,기타(직접입력),담뱃불실화추정,1337.0,대한민국 충남 홍성 서부,36.56301,126.49107
2023,4,2,10:05,일,2023,4,2,14:47,경기,경기,화성,송산,마산,쓰,기타(직접입력),쓰레기소각,0.19,대한민국 경기 화성 송산,37.2873894,126.7392634
2023,4,2,8:47,일,2023,4,2,11:21,충남,충남,서산,해미,산수,입,기타(직접입력),입산자실화(담배불추정),0.86,대한민국 충남 서산 해미,36.7175368,126.5432623
2023,4,2,5:44,일,2023,4,2,11:00,전북,전북,남원,산동,대상,입,기타(직접입력),입산자실화추정(벌채지화재),0.3,대한민국 전북 남원 산동,35.49311,127.47316
2023,4,1,18:50,토,2023,4,1,20:39,전북,전북,전주,덕진,우아1가,입,기타(직접입력),입산자실화(담배꽁초),0.03,대한민국 전북 전주 덕진,35.8293575,127.1338347
2023,4,1,17:37,토,2023,4,1,20:00,충남,충남,서천,기산,가공,,기타(직접입력),농산물소각,0.1,대한민국 충남 서천 기산,36.0838403,126.7638112
2023,4,1,17:01,토,2023,4,1,19:11,경기,경기,광주,곤지암,부항,입,기타(직접입력),입산자실화추정,0.06,대한민국 경기 광주 곤지암,37.3505063,127.346279
2023,4,1,12:46,토,2023,4,2,15:08,경기,경기,화성,양감,정문,쓰,기타(직접입력),쓰레기소각,0.33,대한민국 경기 화성 양감,37.0815708,126.9455851
2023,4,1,11:22,토,2023,4,1,13:40,경남,경남,산청,삼장,대포,입,기타(직접입력),입산자실화추정,0.3,대한민국 경남 산청 삼장,35.33134,127.81981
2023,3,31,20:00,금,2023,3,31,21:30,경기,경기,연천,왕징,무등,기,기타(직접입력),미상,0.05,대한민국 경기 연천 왕징,38.078242,127.001522
2023,3,31,16:47,금,2023,3,31,17:31,경기,경기,광주,남한산성,하번천,입,기타(직접입력),입산자실화,0.01,대한민국 경기 광주 남한산성,37.4791368,127.1801588
2023,3,31,15:45,금,2023,3,31,19:00,북부,강원,홍천,두촌,천현,기,기타(직접입력),모노레일스파크,0.6,대한민국 강원 홍천 두촌,37.867916,128.0170286
2023,3,31,15:17,금,2023,3,31,17:20,경남,경남,함양,안의,당본,,주택화재비화,공장화재,0.5,대한민국 경남 함양 안의,35.629181,127.809347
2023,3,31,14:33,금,2023,3,31,16:40,경북,경북,경주,안강,옥산,입,기타(직접입력),입산자실화추정,0.22,대한민국 경북 경주 안강,35.9705072,129.2334205
2023,3,31,13:15,금,2023,3,31,14:05,경기,경기,용인 처인,양지,주북,쓰,기타(직접입력),쓰레기소각,0.16,대한민국 경기 용인 처인 양지,37.2388614,127.2967202
2023,3,31,12:29,금,2023,3,31,16:48,전남,전남,순천,황전,대치,담,기타(직접입력),담뱃불실화,0.5,대한민국 전남 순천 황전,35.11728,127.456
2023,3,31,12:10,금,2023,3,31,13:30,경북,경북,경주,강동,호명,기,기타(직접입력),재투기,0.27,대한민국 경북 경주 강동,35.9869747,129.275494
2023,3,31,0:39,금,2023,3,31,3:10,광주,광주,광산,광산,오운,입,기타(직접입력),입산자실화추정,0.09,대한민국 광주 광산 광산,35.1396428,126.7938232
2023,3,30,15:00,목,2023,3,30,18:00,북부,경기,화성,매송,야목,기,기타(직접입력),성묘객실화,0.11,대한민국 경기 화성 매송,37.2647244,126.8884091
2023,3,30,14:39,목,2023,3,30,18:00,경기,경기,연천,연천,상,기,기타(직접입력),파이프절단불씨비화,0.3,대한민국 경기 연천 연천,38.1007279,127.0737179
2023,3,30,14:32,목,2023,3,30,15:50,강원,강원,평창,진부,하진부,기,기타(직접입력),전일산불불씨재발화,0.02,대한민국 강원 평창 진부,37.6425685,128.5748224
2023,3,30,14:17,목,2023,4,3,16:29,경기,경기,포천,영북,운천,기,성묘객실화,성묘객(담뱃불)실화,40.49,대한민국 경기 포천 영북,38.0903796,127.2756763
2023,3,30,13:25,목,2023,3,30,16:30,경남,경남,거창,웅양,군암,기,작업장실화,산업현장실화,0.15,대한민국 경남 거창 웅양,35.803051,127.915954
2023,3,30,13:04,목,2023,3,31,9:25,충북,충북,제천,봉양,명도,기,기타(직접입력),도로변담뱃불실화추정,21.0,대한민국 충북 제천 봉양,37.1304027,128.1298058
2023,3,30,12:47,목,2023,4,1,15:00,강원,강원,화천,화천,중,기,기타(직접입력),원인미상,70.0,대한민국 강원 화천 화천,38.1063,127.708
2023,3,30,11:13,목,2023,3,30,13:00,경북,경북,경주,산내,일부,기,기타(직접입력),성묘객실화,0.7,대한민국 경북 경주 산내,35.7576548,129.0472586
2023,3,30,10:08,목,2023,3,30,11:19,경기,경기,여주,가남,대산,입,기타(직접입력),입산자실화,0.02,대한민국 경기 여주 가남,37.1974167,127.5354382
2023,3,29,16:00,수,2023,3,29,17:45,강원,강원,평창,진부,하진부,입,기타(직접입력),입산자실화,0.15,대한민국 강원 평창 진부,37.6425685,128.5748224
2023,3,29,14:59,수,2023,3,29,17:43,경기,경기,여주,흥천,다대,,기타(직접입력),농산폐기물소각추정,0.72,대한민국 경기 여주 흥천,37.326741,127.555288
2023,3,29,14:45,수,2023,3,29,15:33,충남,충남,아산,둔포,신양,입,기타(직접입력),입산자실화,0.07,대한민국 충남 아산 둔포,36.926845,127.0389025
2023,3,29,13:22,수,2023,3,29,17:00,경남,경남,거제,하청,대곡,입,기타(직접입력),입산자실화추정,0.37,대한민국 경남 거제 하청,34.954473,128.6545924
2023,3,28,16:52,화,2023,3,28,18:13,충남,충남,당진,송산,당산,쓰,기타(직접입력),쓰레기소각,0.3,대한민국 충남 당진 송산,36.813393,126.774422
2023,3,27,13:55,월,2023,3,27,14:23,충남,충남,금산,추부,추정,담,기타(직접입력),담뱃불실화,0.09,대한민국 충남 금산 추부,36.2065355,127.4923916
2023,3,26,14:52,일,2023,3,26,17:30,강원,강원,홍천,영귀미,좌운,기,기타(직접입력),미상,0.54,대한민국 강원 홍천 영귀미,37.6780718,127.9350934
2023,3,26,14:45,일,2023,3,27,8:00,인천,인천,강화,화도,동막,,기타(직접입력),주택화재,22.0,대한민국 인천 강화 화도,37.6376595,126.4191692
2023,3,24,18:12,금,2023,3,24,20:10,강원,강원,춘천,남산,강촌,기,기타(직접입력),불씨취급부주의,0.16,대한민국 강원 춘천 남산,37.782624,127.6374167
2023,3,24,15:39,금,2023,3,24,15:57,경기,경기,고양,덕양,원흥,담,기타(직접입력),담뱃불실화,0.01,대한민국 경기 고양 덕양,37.6568755,126.831451
2023,3,24,12:10,금,2023,3,24,14:00,경기,경기,남양주,와부,팔당,기,작업장실화,엔진톱불씨발화,0.03,대한민국 경기 남양주 와부,37.5862797,127.2188793
2023,3,24,11:01,금,2023,3,24,11:30,경기,경기,남양주,,지금,기,기타(직접입력),미상,0.01,대한민국 경기 남양주 nan,37.6498551,127.1634005
2023,3,22,19:47,수,2023,3,22,22:30,전북,전북,진안,성수,좌포,쓰,기타(직접입력),쓰레기소각,0.5,대한민국 전북 진안 성수,35.71361,127.32553
2023,3,22,17:15,수,2023,3,22,19:00,강원,강원,화천,간동,오음,기,작업장실화,산업현장실화,0.07,대한민국 강원 화천 간동,38.0547039,127.8171489
2023,3,22,12:41,수,2023,3,22,15:23,충남,충남,태안,소원,신덕,기,기타(직접입력),도로변발화(담뱃불)추정,0.2,대한민국 충남 태안 소원,36.76364,126.193092
2023,3,22,12:37,수,2023,3,22,16:00,남부,경북,상주,공성,영오,입,기타(직접입력),입산자실화추정,0.58,대한민국 경북 상주 공성,36.28969,128.0791
2023,3,22,11:25,수,2023,3,22,13:30,전북,전북,무주,무풍,철목,입,기타(직접입력),입산자실화추정,0.1,대한민국 전북 무주 무풍,35.93276,127.84711
2023,3,22,11:07,수,2023,3,22,16:00,전북,전북,완주,소양,명덕,기,기타(직접입력),비닐하우스화재,0.2,대한민국 전북 완주 소양,35.8573583,127.2487609
2023,3,21,17:49,화,2023,3,21,20:06,경기,경기,여주,점동,당진,입,기타(직접입력),입산자실화,0.02,대한민국 경기 여주 점동,37.2022322,127.71484
2023,3,21,16:26,화,2023,3,22,1:00,동부,강원,고성,간성,진부,기,낙뢰,낙뢰,0.01,대한민국 강원 고성 간성,38.3794119,128.4737116
2023,3,21,15:17,화,2023,3,21,18:00,강원,강원,원주,소초,교항,,논밭두렁소각,밭두렁소각,0.35,대한민국 강원 원주 소초,37.4176053,128.0036709
2023,3,21,14:27,화,2023,3,21,18:10,북부,강원,양구,방산,건슬,기,기타(직접입력),불발탄발화추정,0.3,대한민국 강원 양구 방산,38.226819,127.95974
2023,3,21,12:52,화,2023,3,21,14:20,울산,울산,울주,두동,삼정,입,기타(직접입력),입산자실화추정,1.2,대한민국 울산 울주 두동,35.7060497,129.2069336
2023,3,21,12:20,화,2023,3,21,14:05,전남,전남,광양,진상,황죽,쓰,기타(직접입력),쓰레기소각,0.3,대한민국 전남 광양 진상,35.0148705,127.719283
2023,3,21,12:12,화,2023,3,21,23:00,경북,경북,안동,도산,의일,,논밭두렁소각,밭두렁소각,10.84,대한민국 경북 안동 도산,36.726583,128.8433122
2023,3,21,11:27,화,2023,3,21,14:30,전남,전남,영광,염산,야월,입,기타(직접입력),입산자실화추정,0.1,대한민국 전남 영광 염산,35.2199239,126.3732594
2023,3,21,10:12,화,2023,3,21,10:50,경기,경기,파주,탄현,법흥,기,기타(직접입력),원인미상,0.01,대한민국 경기 파주 탄현,37.8042615,126.7186775
2023,3,20,13:51,월,2023,3,20,14:50,전북,전북,장수,장계,명덕,담,기타(직접입력),담뱃불실화,0.1,대한민국 전북 장수 장계,35.7318229,127.5811959
2023,3,20,13:48,월,2023,3,20,21:00,충남,충남,서천,마산,요곡,,농산폐기물소각,농산부산불소각(볏짚),16.81,대한민국 충남 서천 마산,36.120502,126.795058
2023,3,20,13:31,월,2023,3,20,17:40,전남,전남,고흥,영남,양사,기,작업장실화,용접불씨취급부주의,0.1,대한민국 전남 고흥 영남,34.59951,127.46066
2023,3,20,13:23,월,2023,3,20,16:50,충남,충남,서천,판교,흥림,입,기타(직접입력),입산자실화(담뱃불추정),0.03,대한민국 충남 서천 판교,36.1554157,126.6794253
2023,3,20,12:15,월,2023,3,20,16:40,전북,전북,임실,오수,오암,기,기타(직접입력),용접불꽃부주의(움막),1.0,대한민국 전북 임실 오수,35.5430825,127.3204028
2023,3,19,18:00,일,2023,3,19,20:30,충북,충북,진천,초평,용정,입,기타(직접입력),입산자실화추정,0.1,대한민국 충북 진천 초평,36.8471,127.537585
2023,3,19,16:08,일,2023,3,19,16:50,경기,경기,양평,개군,부대,담,기타(직접입력),담뱃불실화,0.05,대한민국 경기 양평 개군,37.4276556,127.5345472
2023,3,19,14:40,일,2023,3,19,18:20,경북,경북,영천,청통,죽정,,기타(직접입력),농장화재비화,1.5,대한민국 경북 영천 청통,35.99243,128.82626
2023,3,19,5:50,일,2023,3,19,11:00,전남,전남,보성,회천,봉강,입,기타(직접입력),입산자실화추정,0.1,대한민국 전남 보성 회천,34.6886,127.09551
2023,3,18,21:31,토,2023,3,20,9:00,전남,전남,순천,별량,금치,쓰,기타(직접입력),쓰레기소각(낙엽),16.0,대한민국 전남 순천 별량,34.86599,127.44284
2023,3,18,16:56,토,2023,3,19,6:00,경북,경북,성주,선남,관화,기,성묘객실화,성묘객실화,0.48,대한민국 경북 성주 선남,35.89751,128.34962
2023,3,18,16:38,토,2023,3,19,16:30,강원,강원,평창,진부,신기,기,기타(직접입력),화목보일러재투기,20.2,대한민국 강원 평창 진부,37.6425685,128.5748224
2023,3,18,15:45,토,2023,3,19,9:10,강원,강원,정선,화암,백전,,논밭두렁소각,논밭두렁소각,2.44,대한민국 강원 정선 화암,37.341764,128.7950441
2023,3,18,14:55,토,2023,3,19,10:40,전남,전남,화순,청풍,신,입,기타(직접입력),입산자실화추정,3.0,대한민국 전남 화순 청풍,34.88537,126.95651
2023,3,18,14:08,토,2023,3,18,19:00,충북,충북,영동,심천,금정,입,기타(직접입력),입산자실화추정,14.8,대한민국 충북 영동 심천,36.2368257,127.7207879
2023,3,18,14:01,토,2023,3,18,17:30,충북,충북,제천,한수,북노,입,기타(직접입력),입산자실화추정,0.38,대한민국 충북 제천 한수,36.9209383,128.0818697
2023,3,18,13:34,토,2023,3,18,20:10,전북,전북,완주,용진,간중,입,기타(직접입력),입산자실화추정,3.0,대한민국 전북 완주 용진,35.881826,127.1537543
2023,3,18,13:21,토,2023,3,18,16:15,충남,충남,예산,예산,예산,담,기타(직접입력),담뱃불실화추정,2.0,대한민국 충남 예산 예산,36.6871147,126.8284677
2023,3,18,12:41,토,2023,3,18,16:30,충북,충북,제천,청풍,오산,쓰,쓰레기소각,쓰레기소각,0.18,대한민국 충북 제천 청풍,36.9962642,128.165439
2023,3,18,11:47,토,2023,3,18,13:30,전북,전북,완주,용진,운곡,입,기타(직접입력),입산자실화추정,0.7,대한민국 전북 완주 용진,35.881826,127.1537543
2023,3,17,21:21,금,2023,3,18,0:25,경기,경기,양주,광적,우고,,주택화재비화,공장화재,0.05,대한민국 경기 양주 광적,37.8238507,126.9826978
2023,3,16,21:05,목,2023,3,16,22:05,강원,강원,영월,남,연당,기,기타(직접입력),전선합선추정,0.16,대한민국 강원 영월 남,37.159398,128.4103668
2023,3,16,14:54,목,2023,3,22,0:00,경북,경북,상주,외남,혼평,기,기타(직접입력),불씨취급부주의(재투기),98.0,대한민국 경북 상주 외남,36.3642635,128.1000138
2023,3,16,12:18,목,2023,3,16,17:15,전남,전남,진도,의신,만길,기,기타(직접입력),야적장화재,0.3,대한민국 전남 진도 의신,34.439664,126.279538
2023,3,16,11:29,목,2023,3,16,16:23,경남,경남,밀양,무안,옹동,기,작업장실화,절단기작업불꽃비화,0.5,대한민국 경남 밀양 무안,35.46848,128.65934
2023,3,15,22:20,수,2023,3,16,0:27,경기,경기,하남,,상사창,,기타(직접입력),건축물실화,0.2,대한민국 경기 하남 nan,37.5397035,127.2235329
2023,3,14,13:58,화,2023,3,14,17:48,경기,경기,여주,가남,태평,기,기타(직접입력),산업현장실화,1.93,대한민국 경기 여주 가남,37.1974167,127.5354382
2023,3,14,13:54,화,2023,3,14,16:00,전북,전북,남원,대강,사석,기,기타(직접입력),합선,0.3,대한민국 전북 남원 대강,35.341931,127.215258
2023,3,14,13:37,화,2023,3,14,14:30,강원,강원,홍천,영귀미,삼현,기,기타(직접입력),불씨취급부주의,0.13,대한민국 강원 홍천 영귀미,37.6780718,127.9350934
2023,3,14,13:30,화,2023,3,14,15:02,경기,경기,파주,파주,봉서,기,기타(직접입력),미상,0.03,대한민국 경기 파주 파주,37.8150577,126.7924283
2023,3,14,12:44,화,2023,3,14,15:00,충북,충북,보은,탄부,상장,기,성묘객실화,성묘객실화,0.04,대한민국 충북 보은 탄부,36.440206,127.7817747
2023,3,14,12:30,화,2023,3,14,13:50,경북,경북,예천,개포,장송,,기타(직접입력),영농부산물소각,0.1,대한민국 경북 예천 개포,36.6269118,128.3286222
2023,3,13,20:07,월,2023,3,13,23:00,남부,경북,봉화,소천,남회룡,입,기타(직접입력),입산자실화,0.6,대한민국 경북 봉화 소천,36.980028,128.657778
2023,3,13,9:33,월,2023,3,13,11:40,전남,전남,화순,이양,장치,기,낙뢰,낙뢰,0.03,대한민국 전남 화순 이양,34.8915516,126.9898739
2023,3,13,6:59,월,2023,3,13,8:15,경남,경남,거제,사등,오량,기,낙뢰,낙뢰,0.01,대한민국 경남 거제 사등,34.9129964,128.5161391
2023,3,12,14:39,일,2023,3,12,17:00,경기,경기,안양,만안,석수,담,기타(직접입력),담뱃불실화,0.01,대한민국 경기 안양 만안,37.406799,126.9168237
2023,3,11,22:32,토,2023,3,12,14:00,경남,경남,양산,원동,선,,기타(직접입력),건축물화재비화,2.96,대한민국 경남 양산 원동,35.3624248,128.9207978
2023,3,11,20:56,토,2023,3,12,10:00,충남,충남,당진,석문,난지도,입,기타(직접입력),입산자실화,1.3,대한민국 충남 당진 석문,37.0096458,126.5889323
2023,3,11,15:35,토,2023,3,11,17:00,충남,충남,천안 동남,풍세,보성,쓰,기타(직접입력),쓰레기소각,0.23,대한민국 충남 천안 동남 풍세,36.7430223,127.1611707
2023,3,11,14:50,토,2023,3,11,18:30,충남,충남,공주,탄천,운곡,쓰,기타(직접입력),쓰레기소각,0.4,대한민국 충남 공주 탄천,36.3190188,127.0303035
2023,3,11,14:50,토,2023,3,11,16:30,전북,전북,남원,송동,송기,,농산폐기물소각,농산폐기물소각,0.3,대한민국 전북 남원 송동,35.3637422,127.342847
2023,3,11,13:24,토,2023,3,12,16:13,경남,경남,하동,화개,범왕,입,기타(직접입력),입산자실화추정,128.5,대한민국 경남 하동 화개,35.199895,127.630599
2023,3,11,12:42,토,2023,3,11,14:30,강원,강원,홍천,서,개야,기,기타(직접입력),미상,0.13,대한민국 강원 홍천 서,37.67158,127.63637
2023,3,11,11:33,토,2023,3,11,15:43,충북,충북,괴산,청천,지경,기,기타(직접입력),재처리부주의,0.66,대한민국 충북 괴산 청천,36.684251,127.8077291
2023,3,11,11:33,토,2023,3,11,14:30,충남,충남,천안,동남,신방,,기타(직접입력),밭두렁소각,1.3,대한민국 충남 천안 동남,36.8067134,127.1516634
2023,3,10,14:58,금,2023,3,10,16:19,경기,경기,남양주,별내,용암,,논밭두렁소각,밭두렁소각,0.27,대한민국 경기 남양주 별내,37.642333,127.1276086
2023,3,10,13:04,금,2023,3,10,16:30,충북,충북,청주 상당,낭성,추정,,농산폐기물소각,농업부산불소각,1.73,대한민국 충북 청주 상당 낭성,36.6222756,127.6028405
2023,3,10,12:10,금,2023,3,10,14:55,경북,경북,상주,공성,봉산,담,담뱃불실화,담뱃불실화,3.43,대한민국 경북 상주 공성,36.28969,128.0791
2023,3,9,15:57,목,2023,3,9,17:30,충남,충남,논산,노성,교촌,기,기타(직접입력),성묘객실화,0.1,대한민국 충남 논산 노성,36.2782289,127.1217845
2023,3,9,12:38,목,2023,3,9,13:10,경기,경기,용인 처인,백암,백봉,입,기타(직접입력),입산자실화,0.06,대한민국 경기 용인 처인 백암,37.1606781,127.3640013
2023,3,9,10:16,목,2023,3,9,22:00,충북,충북,보은,산외,중티,쓰,쓰레기소각,쓰레기소각,2.0,대한민국 충북 보은 산외,36.5672273,127.7367274
2023,3,9,8:32,목,2023,3,9,11:00,전남,전남,순천,송광,신평,,기타(직접입력),암자화재,0.1,대한민국 전남 순천 송광,34.99053,127.24576
2023,3,9,0:17,목,2023,3,9,2:50,충남,충남,당진,석문,교로,입,기타(직접입력),입산자실화,0.15,대한민국 충남 당진 석문,37.0096458,126.5889323
2023,3,8,10:50,수,2023,3,8,18:50,전남,전남,화순,백아,송단,쓰,쓰레기소각,쓰레기소각,2.0,대한민국 전남 화순 백아,35.16389,127.13141
2023,3,7,18:53,화,2023,3,7,19:21,경기,경기,포천,군내,하성북,담,담뱃불실화,담뱃불실화,0.01,대한민국 경기 포천 군내,37.8950357,127.2043898
2023,3,7,17:04,화,2023,3,7,17:50,충남,충남,서천,서천,태월,,기타(직접입력),밭두렁소각,0.06,대한민국 충남 서천 서천,36.0821954,126.7084727
2023,3,7,15:47,화,2023,3,7,19:00,경남,경남,산청,차황,장박,쓰,기타(직접입력),쓰레기소각,3.73,대한민국 경남 산청 차황,35.4634724,127.9270616
2023,3,7,12:35,화,2023,3,7,20:15,충남,충남,당진,면천,율사,,농산폐기물소각,농산폐기물소각,7.0,대한민국 충남 당진 면천,36.818944,126.663061
2023,3,6,17:06,월,2023,3,6,20:00,경북,경북,울진,금강송,쌍전,,농산폐기물소각,농산부산물소각,0.5,대한민국 경북 울진 금강송,36.9323131,129.1681638
2023,3,6,16:29,월,2023,3,6,17:10,강원,강원,고성,죽왕,향목,기,기타(직접입력),조사중,0.01,대한민국 강원 고성 죽왕,38.3298445,128.5242287
2023,3,6,16:19,월,2023,3,6,17:30,충북,충북,청주 청원,오창,가좌,기,기타(직접입력),전기합선추정,0.28,대한민국 충북 청주 청원 오창,36.740575,127.4564874
2023,3,6,15:18,월,2023,3,6,19:00,경기,경기,안성,보개,오두,기,기타(직접입력),용접불씨부주의,0.5,대한민국 경기 안성 보개,37.0122074,127.2986588
2023,3,6,15:12,월,2023,3,6,17:30,충북,충북,충주,주덕,삼청,쓰,기타(직접입력),쓰레기소각,0.02,대한민국 충북 충주 주덕,36.9733932,127.8024452
2023,3,6,13:56,월,2023,3,6,18:00,전남,전남,장성,진원,산동,입,기타(직접입력),입산자실화,1.9,대한민국 전남 장성 진원,35.2633763,126.8229866
2023,3,6,13:08,월,2023,3,6,14:35,강원,강원,횡성,서원,석화,쓰,쓰레기소각,쓰레기소각,0.17,대한민국 강원 횡성 서원,37.4902574,127.8529234
2023,3,6,13:00,월,2023,3,6,16:30,전남,전남,고흥,풍양,풍남,담,담뱃불실화,담뱃불실화,0.2,대한민국 전남 고흥 풍양,34.56309,127.23831
2023,3,6,12:40,월,2023,3,6,17:00,전북,전북,임실,임실,금성,기,기타(직접입력),성묘객실화,0.4,대한민국 전북 임실 임실,35.6329664,127.2898846
2023,3,6,11:51,월,2023,3,6,15:39,전남,전남,무안,몽탄,청용,,농산폐기물소각,영농부산물소각,0.26,대한민국 전남 무안 몽탄,34.9298291,126.5037002
2023,3,6,10:18,월,2023,3,6,16:18,경북,경북,청송,파천,송강,,농산폐기물소각,농산폐기물소각,2.92,대한민국 경북 청송 파천,36.462012,129.0373486
2023,3,6,0:17,월,2023,3,6,10:40,경북,경북,성주,선남,문방,,기타(직접입력),농막화재,0.16,대한민국 경북 성주 선남,35.89751,128.34962
2023,3,5,19:18,일,2023,3,5,21:34,충남,충남,서산,운산,안호,담,기타(직접입력),담뱃불실화,0.5,대한민국 충남 서산 운산,36.8092384,126.5872774
2023,3,5,15:40,일,2023,3,5,16:10,인천,인천,남동,,장수,기,기타(직접입력),원인미상,0.01,대한민국 인천 남동 nan,37.446902,126.7315126
2023,3,5,14:13,일,2023,3,5,17:00,전남,전남,완도,신지,월양,쓰,쓰레기소각,쓰레기소각,0.3,대한민국 전남 완도 신지,34.33436,126.84281
2023,3,5,13:33,일,2023,3,5,16:30,충남,충남,공주,탄천,광명,쓰,기타(직접입력),쓰레기소각,0.9,대한민국 충남 공주 탄천,36.3190188,127.0303035
2023,3,5,12:16,일,2023,3,5,14:30,전북,전북,무주,무풍,금평,담,기타(직접입력),담뱃불실화,0.3,대한민국 전북 무주 무풍,35.93276,127.84711
2023,3,5,12:16,일,2023,3,5,17:20,경북,경북,경산,남천,산전,기,기타(직접입력),양봉장화재전이,3.0,대한민국 경북 경산 남천,35.8326399,128.7329527
2023,3,4,18:53,토,2023,3,4,22:00,전북,전북,완주,비봉,이전,입,기타(직접입력),입산자실화추정,0.1,대한민국 전북 완주 비봉,36.0107466,127.1555291
2023,3,4,14:15,토,2023,3,4,15:10,중부,충북,제천,봉양,학산,쓰,쓰레기소각,쓰레기소각,0.3,대한민국 충북 제천 봉양,37.1304027,128.1298058
2023,3,4,13:40,토,2023,3,4,15:57,전남,전남,화순,동,대포,쓰,쓰레기소각,쓰레기소각,0.5,대한민국 전남 화순 동,35.0450724,127.0458543
2023,3,4,13:00,토,2023,3,4,13:57,충남,충남,부여,충화,현미,기,기타(직접입력),모터전기합선,0.3,대한민국 충남 부여 충화,36.17315,126.82532
2023,3,3,19:32,금,2023,3,3,20:20,경기,경기,여주,강천,부평,기,기타(직접입력),화목보일러불씨취급부주의,0.01,대한민국 경기 여주 강천,37.268727,127.71952
2023,3,3,17:25,금,2023,3,3,18:07,경기,경기,양평,용문,삼성,쓰,쓰레기소각,쓰레기소각,0.02,대한민국 경기 양평 용문,37.4822294,127.59465
2023,3,3,14:11,금,2023,3,4,17:00,남부,경북,영양,영양,무창,기,기타(직접입력),화목보일러재투기,16.1,대한민국 경북 영양 영양,36.6664,129.1127
2023,3,3,14:02,금,2023,3,3,17:55,충남,충남,공주,신풍,봉갑,쓰,기타(직접입력),쓰레기소각,2.0,대한민국 충남 공주 신풍,36.5070333,126.9455613
2023,3,3,11:58,금,2023,3,3,13:48,충남,충남,태안,태안,반곡,,기타(직접입력),밭두렁소각,0.1,대한민국 충남 태안 태안,36.7454236,126.29836
2023,3,3,10:57,금,2023,3,3,11:34,충남,충남,홍성,홍동,대원,쓰,쓰레기소각,쓰레기소각,0.03,대한민국 충남 홍성 홍동,36.5628758,126.6926918
2023,3,3,10:41,금,2023,3,3,12:30,충남,충남,부여,충화,가화,쓰,기타(직접입력),쓰레기소각,0.09,대한민국 충남 부여 충화,36.17315,126.82532
2023,3,3,8:10,금,2023,3,3,9:10,강원,강원,정선,임계,도전,,주택화재비화,주택화재,0.06,대한민국 강원 정선 임계,37.4962072,128.8481461
2023,3,2,21:48,목,2023,3,2,23:55,경남,경남,하동,양보,지례,입,기타(직접입력),입산자실화추정,0.1,대한민국 경남 하동 양보,35.06621,127.84883
2023,3,2,17:21,목,2023,3,2,19:00,경기,경기,안성,미양,개정,,농산폐기물소각,농산폐기물소각(폐비닐),0.66,대한민국 경기 안성 미양,36.9751467,127.2133243
2023,3,2,15:20,목,2023,3,2,17:00,전북,전북,임실,성수,태평,입,기타(직접입력),입산자실화추정,0.2,대한민국 전북 임실 성수,35.62456,127.34637
2023,3,2,15:06,목,2023,3,2,20:06,전남,전남,광양,봉강,조령,입,기타(직접입력),입산자실화,1.0,대한민국 전남 광양 봉강,35.02673,127.57056
2023,3,2,13:42,목,2023,3,2,17:23,경기,경기,가평,청평,호명,기,기타(직접입력),숯부주의,1.6,대한민국 경기 가평 청평,37.735508,127.4266359
2023,3,2,12:52,목,2023,3,2,15:54,경기,경기,화성,정남,백,쓰,쓰레기소각,생활쓰레기소각(종이),0.43,대한민국 경기 화성 정남,37.16584,126.9785833
2023,3,2,4:18,목,2023,3,2,6:10,전북,전북,전주,완산,효자,입,기타(직접입력),입산자실화추정,0.02,대한민국 전북 전주 완산,35.802325,127.1399667
2023,3,1,14:45,수,2023,3,1,16:00,경기,경기,고양,일산동,사리현,담,담뱃불실화,담뱃불실화,0.16,대한민국 경기 고양 일산동,37.6816091,126.7726954
2023,3,1,14:37,수,2023,3,1,20:48,전남,전남,나주,동강,곡천,쓰,쓰레기소각,쓰레기소각,0.3,대한민국 전남 나주 동강,34.93646,126.55527
2023,3,1,5:31,수,2023,3,1,9:00,경북,경북,경주,양남,산서,기,기타(직접입력),전일들불화재불씨비화,0.37,대한민국 경북 경주 양남,35.6751587,129.46117
2023,2,28,20:09,화,2023,2,28,21:50,강원,강원,평창,미탄,율치,,주택화재비화,축사화재,0.28,대한민국 강원 평창 미탄,37.3419849,128.5004681
2023,2,28,19:27,화,2023,2,28,22:33,동부,강원,평창,봉평,진조,기,기타(직접입력),풍력발전기화재,0.27,대한민국 강원 평창 봉평,37.604699,128.3545194
2023,2,28,17:11,화,2023,2,28,18:40,충남,충남,공주,탄천,남산,쓰,쓰레기소각,쓰레기소각,0.3,대한민국 충남 공주 탄천,36.3190188,127.0303035
2023,2,28,15:46,화,2023,3,1,11:00,경북,경북,예천,풍양,와룡,기,기타(직접입력),재투기,37.0,대한민국 경북 예천 풍양,36.5101555,128.2999493
2023,2,28,15:00,화,2023,2,28,18:00,전북,전북,남원,사매,오신,,논밭두렁소각,밭두렁소각,1.0,대한민국 전북 남원 사매,35.47833,127.35244
2023,2,28,14:18,화,2023,2,28,19:30,전북,전북,완주,비봉,봉산,입,기타(직접입력),입산자실화추정,1.0,대한민국 전북 완주 비봉,36.0107466,127.1555291
2023,2,28,14:17,화,2023,3,1,12:00,경북,경북,영천,화남,월곡,기,작업장실화,절단기작업불꽃비화,55.0,대한민국 경북 영천 화남,36.07749,128.89677
2023,2,27,18:42,월,2023,2,27,21:15,경북,경북,안동,임동,망천,담,기타(직접입력),담뱃불실화,0.6,대한민국 경북 안동 임동,36.5698393,128.9210496
2023,2,27,17:01,월,2023,2,28,2:30,경남,경남,창녕,남지,반포,,농산폐기물소각,농산부산물소각,2.81,대한민국 경남 창녕 남지,35.42803,128.43144
2023,2,27,13:00,월,2023,2,27,14:07,강원,강원,고성,현내,죽정,기,작업장실화,용접불씨,0.3,대한민국 강원 고성 현내,38.53019,128.38807
2023,2,27,12:35,월,2023,2,27,14:27,경남,경남,함안,칠원,오곡,,농산폐기물소각,농산폐기물소각,0.3,대한민국 경남 함안 칠원,35.3031799,128.523514
2023,2,27,11:50,월,2023,2,27,14:14,경북,경북,상주,함창,신덕,기,기타(직접입력),예초기배터리폭발,0.71,대한민국 경북 상주 함창,36.5696278,128.174871
2023,2,27,11:37,월,2023,2,27,12:37,경북,경북,포항,구룡포,병포,기,작업장실화,용접부주의,0.1,대한민국 경북 포항 구룡포,35.9926457,129.5617702
2023,2,27,10:34,월,2023,2,27,11:15,충남,충남,홍성,홍동,원천,쓰,기타(직접입력),쓰레기소각,0.01,대한민국 충남 홍성 홍동,36.5628758,126.6926918
2023,2,26,20:31,일,2023,2,26,22:17,전남,전남,보성,벌교,장양,기,기타(직접입력),불씨취급부주의(숯불재투기),0.01,대한민국 전남 보성 벌교,34.841773,127.345584
2023,2,26,14:41,일,2023,2,26,15:12,인천,인천,강화,송해,양야,,기타(직접입력),밭두렁소각,0.6,대한민국 인천 강화 송해,37.7697134,126.4606061
2023,2,26,14:23,일,2023,2,26,16:55,전북,전북,군산,옥산,금성,,농산폐기물소각,영농부산물소각,0.1,대한민국 전북 군산 옥산,35.941385,126.749779
2023,2,26,14:20,일,2023,2,26,16:00,전북,전북,임실,강진,갈담,,기타(직접입력),영농부산물소각,0.5,대한민국 전북 임실 강진,35.54734,127.1415
2023,2,26,14:10,일,2023,2,26,17:20,경북,경북,영천,화남,죽곡,담,기타(직접입력),담뱃불실화,2.0,대한민국 경북 영천 화남,36.07749,128.89677
2023,2,26,14:05,일,2023,2,26,16:40,경기,경기,안성,금광,현곡,쓰,기타(직접입력),쓰레기소각,0.62,대한민국 경기 안성 금광,36.9897019,127.3307224
2023,2,26,13:33,일,2023,2,26,15:09,전남,전남,순천,서,달산,,기타(직접입력),영농부산물소각,0.03,대한민국 전남 순천 서,34.9090331,127.4796175
2023,2,26,13:27,일,2023,2,26,15:31,충북,충북,단양,대강,황정,입,기타(직접입력),입산자실화추정,0.38,대한민국 충북 단양 대강,36.8673283,128.3746519
2023,2,26,13:18,일,2023,2,26,15:32,경기,경기,남양주,화도,답내,기,기타(직접입력),성묘객실화,0.33,대한민국 경기 남양주 화도,37.6302005,127.3179009
2023,2,26,13:00,일,2023,2,26,16:30,전남,전남,화순,이양,구례,쓰,기타(직접입력),쓰레기소각,0.5,대한민국 전남 화순 이양,34.8915516,126.9898739
2023,2,26,12:50,일,2023,2,26,14:20,전북,전북,임실,삼계,삼계,기,기타(직접입력),산림작업장실화,0.2,대한민국 전북 임실 삼계,35.50837,127.2729
2023,2,26,11:40,일,2023,2,26,12:49,전북,전북,군산,,내흥,입,기타(직접입력),입산자실화추정,0.02,대한민국 전북 군산 nan,35.9910529,126.7112824
2023,2,26,11:36,일,2023,2,26,12:05,세종,세종,,금남,대박,기,기타(직접입력),불씨취급부주의(재투기),0.07,대한민국 세종 nan 금남,36.4607279,127.3028691
2023,2,25,23:26,토,2023,2,26,1:00,경남,경남,함양,함양,난평,입,기타(직접입력),입산자실화추정,0.09,대한민국 경남 함양 함양,35.5204145,127.7252966
2023,2,25,18:34,토,2023,2,25,19:40,인천,인천,강화,내가,오상,쓰,기타(직접입력),쓰레기소각(낙엽),0.02,대한민국 인천 강화 내가,37.7206045,126.3907788
2023,2,25,15:36,토,2023,2,25,18:00,충남,충남,부여,은산,합수,기,작업장실화,용접불씨,1.0,대한민국 충남 부여 은산,36.3136763,126.8543172
2023,2,25,14:26,토,2023,2,25,17:00,경남,경남,진주,대곡,유곡,,논밭두렁소각,밭두렁소각(잔디),0.14,대한민국 경남 진주 대곡,35.3397785,128.1394443
2023,2,25,13:52,토,2023,2,25,15:20,경북,경북,예천,은풍,동사,기,기타(직접입력),성묘객실화,0.1,대한민국 경북 예천 은풍,36.7506879,128.4377043
2023,2,25,13:22,토,2023,2,25,14:51,충남,충남,부여,세도,귀덕,쓰,기타(직접입력),쓰레기소각,0.5,대한민국 충남 부여 세도,36.166885,126.9436117
2023,2,25,13:01,토,2023,2,25,14:23,전남,전남,순천,상사,쌍지,담,기타(직접입력),담뱃불실화추정,0.1,대한민국 전남 순천 상사,34.93472,127.4271
2023,2,25,12:52,토,2023,2,25,16:29,경기,경기,화성,송산,독지,기,작업장실화,그라인더작업불씨,0.09,대한민국 경기 화성 송산,37.2873894,126.7392634
2023,2,25,12:40,토,2023,2,25,14:30,경남,경남,거창,북상,갈계,쓰,기타(직접입력),쓰레기소각,0.17,대한민국 경남 거창 북상,35.6871029,127.9162045
2023,2,25,12:39,토,2023,2,25,15:30,경기,경기,여주,점동,사곡,,기타(직접입력),밭두렁소각,0.6,대한민국 경기 여주 점동,37.2022322,127.71484
2023,2,24,14:29,금,2023,2,24,17:10,전남,전남,강진,칠량,명주,입,기타(직접입력),입산자실화추정,0.45,대한민국 전남 강진 칠량,34.57101,126.81999
2023,2,24,14:20,금,2023,2,24,0:00,부산,부산,기장,정관,병산,담,기타(직접입력),담뱃불실화,3.0,대한민국 부산 기장 정관,35.3412994,129.1701574
2023,2,24,13:19,금,2023,2,24,14:20,경북,경북,울진,온정,덕인,기,기타(직접입력),성묘객실화,0.08,대한민국 경북 울진 온정,36.725177,129.3464382
2023,2,23,20:07,목,2023,2,23,21:50,충남,충남,공주,의당,청룡,입,기타(직접입력),입산자실화,1.0,대한민국 충남 공주 의당,36.4908164,127.1353113
2023,2,23,15:33,목,2023,2,23,18:11,경북,경북,봉화,명호,북곡,입,기타(직접입력),입산자실화추정,1.25,대한민국 경북 봉화 명호,36.8582,128.898015
2023,2,22,11:53,수,2023,2,22,17:38,충북,충북,청주 상당,문의,문덕,,기타(직접입력),농산물소각,2.1,대한민국 충북 청주 상당 문의,36.4969286,127.4794064
2023,2,21,12:38,화,2023,2,21,14:30,경북,경북,문경,문경,중평,기,작업장실화,용접작업실화,0.51,대한민국 경북 문경 문경,36.5858541,128.1870612
2023,2,20,12:40,월,2023,2,20,14:52,경기,경기,화성,비봉,자안,쓰,기타(직접입력),쓰레기소각(낙엽),0.3,대한민국 경기 화성 비봉,37.1997687,126.8901022
2023,2,19,19:14,일,2023,2,19,22:50,경북,경북,안동,임동,사월,쓰,기타(직접입력),쓰레기소각,1.03,대한민국 경북 안동 임동,36.5698393,128.9210496
2023,2,19,17:13,일,2023,2,19,18:57,경기,경기,양평,양평,오빈,기,기타(직접입력),불씨취급부주의(잔디밭),0.12,대한민국 경기 양평 양평,37.4928474,127.4918972
2023,2,17,14:04,금,2023,2,17,15:10,북부,경기,고양,덕양,행신,기,기타(직접입력),재처리부주의,0.55,대한민국 경기 고양 덕양,37.6568755,126.831451
2023,2,17,5:59,금,2023,2,17,8:40,전남,전남,광양,진상,어치,,기타(직접입력),주택화재,0.1,대한민국 전남 광양 진상,35.0148705,127.719283
2023,2,15,15:50,수,2023,2,15,16:30,세종,세종,,연기,눌왕,기,기타(직접입력),불씨취급부주의,0.04,대한민국 세종 nan 연기,36.5963448,127.3008851
2023,2,15,15:00,수,2023,2,15,15:35,경기,경기,용인 처인,백암,박곡,담,기타(직접입력),담뱃불실화,0.1,대한민국 경기 용인 처인 백암,37.1606781,127.3640013
2023,2,15,4:01,수,2023,2,15,4:50,경남,경남,창원,의창,지귀,입,기타(직접입력),입산자실화추정,0.03,대한민국 경남 창원 의창,35.2537,128.6401
2023,2,12,22:38,일,2023,2,12,23:44,경기,경기,양평,서종,정배,,주택화재비화,공장화재비화,0.06,대한민국 경기 양평 서종,37.609039,127.348047
2023,2,10,12:04,금,2023,2,10,13:20,경기,경기,하남,,초이,쓰,기타(직접입력),쓰레기소각,0.01,대한민국 경기 하남 nan,37.5397035,127.2235329
2023,2,9,12:57,목,2023,2,9,16:19,전북,전북,완주,소양,화심,입,기타(직접입력),입산자실화,0.4,대한민국 전북 완주 소양,35.8573583,127.2487609
2023,2,8,16:51,수,2023,2,8,18:38,전남,전남,장흥,유치,반월,입,기타(직접입력),입산자실화추정,0.02,대한민국 전남 장흥 유치,34.7922,126.8575
2023,2,8,13:44,수,2023,2,8,17:30,전남,전남,고흥,점암,안호,쓰,기타(직접입력),생활쓰레기소각(묘지주변),0.3,대한민국 전남 고흥 점암,34.64667,127.39564
2023,2,7,15:09,화,2023,2,7,16:55,경북,경북,상주,이안,아천,입,기타(직접입력),입산자실화추정,0.16,대한민국 경북 상주 이안,36.56449,128.13116
2023,2,7,14:20,화,2023,2,7,18:00,경남,경남,거창,가북,우혜,,기타(직접입력),건축물실화,0.76,대한민국 경남 거창 가북,35.6871029,127.9162045
2023,2,7,13:33,화,2023,2,7,16:20,경기,경기,하남,,감북,입,기타(직접입력),입산자실화,0.01,대한민국 경기 하남 nan,37.5397035,127.2235329
2023,2,7,9:34,화,2023,2,7,10:05,경기,경기,양평,양서,신원,기,기타(직접입력),미상,0.01,대한민국 경기 양평 양서,37.5475976,127.3278786
2023,2,6,13:50,월,2023,2,6,15:00,전북,전북,임실,성수,성수,쓰,기타(직접입력),쓰레기소각,0.3,대한민국 전북 임실 성수,35.62456,127.34637
2023,2,6,11:59,월,2023,2,6,13:40,전남,전남,진도,조도,신옥,,농산폐기물소각,농작물소각,0.1,대한민국 전남 진도 조도,34.303956,125.9957578
2023,2,5,20:11,일,2023,2,5,21:35,경남,경남,양산,원동,용당,기,방화,방화,0.03,대한민국 경남 양산 원동,35.3624248,128.9207978
2023,2,5,15:20,일,2023,2,5,17:40,전남,전남,나주,문평,계로,쓰,기타(직접입력),쓰레기소각,0.2,대한민국 전남 나주 문평,35.0628,126.6237
2023,2,5,14:23,일,2023,2,5,16:07,경기,경기,광주,초월,신월,입,기타(직접입력),입산자실화,0.03,대한민국 경기 광주 초월,37.3733591,127.2999508
2023,2,4,10:54,토,2023,2,4,13:30,부산,부산,기장,일광,이천,담,기타(직접입력),담뱃불실화,0.5,대한민국 부산 기장 일광,35.268279,129.2332968
2023,2,3,17:26,금,2023,2,4,10:00,경기,경기,여주,강천,강천,입,기타(직접입력),입산자실화,0.95,대한민국 경기 여주 강천,37.268727,127.71952
2023,2,3,15:29,금,2023,2,3,16:52,북부,경기,양평,청운,다대,기,기타(직접입력),성묘객실화,0.48,대한민국 경기 양평 청운,37.552611,127.712092
2023,2,1,22:32,수,2023,2,2,2:30,경북,경북,울진,기성,정명,기,방화,방화,1.3,대한민국 경북 울진 기성,36.8005291,129.4529757
2023,2,1,18:07,수,2023,2,1,20:00,부산,부산,기장,철마,용곡,기,기타(직접입력),전기누전,0.03,대한민국 부산 기장 철마,35.274794,129.150785
2023,2,1,14:00,수,2023,2,1,21:30,경남,경남,함안,대산,장암,쓰,기타(직접입력),쓰레기소각,4.38,대한민국 경남 함안 대산,35.2743,128.32305
2023,1,30,15:18,월,2023,1,30,16:20,울산,울산,울주,온양,고산,기,기타(직접입력),용접실화,0.02,대한민국 울산 울주 온양,35.41516,129.26248
2023,1,29,10:58,일,2023,1,29,18:00,경남,경남,양산,원동,용당,쓰,쓰레기소각,쓰레기소각(낙엽),0.1,대한민국 경남 양산 원동,35.3624248,128.9207978
2023,1,28,10:19,토,2023,1,28,11:20,경북,경북,포항 남,구룡포,늘태,기,기타(직접입력),재투기,0.1,대한민국 경북 포항 남 구룡포,35.9926457,129.5617702
2023,1,25,16:13,수,2023,1,25,17:08,경기,경기,여주,금사,도곡,쓰,기타(직접입력),쓰레기소각,0.12,대한민국 경기 여주 금사,37.379474,127.5220643
2023,1,24,12:53,화,2023,1,24,13:15,부산,부산,기장,장안,월내,기,기타(직접입력),캠핑장숯더미발화,0.07,대한민국 부산 기장 장안,35.32553,129.23515
2023,1,24,6:05,화,2023,1,24,8:30,경남,경남,산청,금서,지막,입,기타(직접입력),입산자담뱃불실화,0.01,대한민국 경남 산청 금서,35.46241,127.793772
2023,1,23,12:35,월,2023,1,23,14:00,경남,경남,함양,함양,이은,,주택화재비화,주택아궁이불씨발화,0.06,대한민국 경남 함양 함양,35.5204145,127.7252966
2023,1,22,13:35,일,2023,1,22,14:10,울산,울산,울주,웅촌,초천,기,성묘객실화,성묘객실화,0.01,대한민국 울산 울주 웅촌,35.4642227,129.2086445
2023,1,22,11:07,일,2023,1,22,11:27,경남,경남,창원,성산,양곡,기,기타(직접입력),성묘객실화,0.01,대한민국 경남 창원 성산,35.1414944,128.5115
2023,1,21,15:57,토,2023,1,22,0:20,전남,전남,고흥,도화,구암,기,기타(직접입력),태양광패널합선,0.8,대한민국 전남 고흥 도화,34.49263,127.32637
2023,1,21,13:19,토,2023,1,21,17:00,경남,경남,거제,연초,연사,,논밭두렁소각,논밭두렁소각,0.03,대한민국 경남 거제 연초,34.9121609,128.6520368
2023,1,12,17:14,목,2023,1,12,18:19,경기,경기,안양,만안,석수,입,기타(직접입력),입산자실화,0.01,대한민국 경기 안양 만안,37.406799,126.9168237
2023,1,12,13:43,목,2023,1,12,17:18,남부,경북,구미,옥성,대원,입,기타(직접입력),입산자실화추정,1.21,대한민국 경북 구미 옥성,36.2968563,128.2781837
2023,1,12,12:47,목,2023,1,13,6:20,경북,경북,성주,가천,금봉,기,작업장실화,산림사엉방실화,32.53,대한민국 경북 성주 가천,35.86735,128.13972
2023,1,10,13:55,화,2023,1,10,15:20,경남,경남,고성,삼산,두포,기,기타(직접입력),전선스파크,0.05,대한민국 경남 고성 삼산,34.93965,128.27124
2023,1,6,15:20,금,2023,1,6,20:15,전남,전남,고흥,남양,망주,입,기타(직접입력),입산자실화,0.05,대한민국 전남 고흥 남양,34.7274298,127.3390162
2023,1,6,12:45,금,2023,1,6,13:30,전북,전북,고창,고수,상평,입,기타(직접입력),입산자실화추정,0.03,대한민국 전북 고창 고수,35.4043921,126.6859694
2023,1,4,16:36,수,2023,1,4,22:00,부산,부산,기장,기장,대명,,기타(직접입력),건축물실화,0.02,대한민국 부산 기장 기장,35.2444351,129.2188738
2023,1,2,14:30,월,2023,1,2,16:54,경북,경북,예천,감천,현내,입,기타(직접입력),입산자실화추정,0.05,대한민국 경북 예천 감천,36.724654,128.5264494
2023,1,2,11:33,월,2023,1,2,12:30,인천,인천,옹진,자월,이작,기,기타(직접입력),미상,0.33,대한민국 인천 옹진 자월,37.2504608,126.3084438
2023,1,1,13:57,일,2023,1,2,14:45,경북,경북,예천,용궁,대은,입,기타(직접입력),입산자실화추정,0.09,대한민국 경북 예천 용궁,36.6069143,128.2734067
2022,12,30,7:08,금,2022,12,30,8:05,경북,경북,경산,남천,삼성,입,기타(직접입력),입산자실화추정,0.01,대한민국 경북 경산 남천,35.8326399,128.7329527
2022,12,30,0:03,금,2022,12,30,2:43,경북,경북,영천,대창,용호,,기타(직접입력),하우스화재비화,1.3,대한민국 경북 영천 대창,35.8753366,128.8962944
2022,12,26,17:48,월,2022,12,26,18:30,울산,울산,울주,청량,용암,기,기타(직접입력),불씨취급부주의,0.02,대한민국 울산 울주 청량,35.4784668,129.2820358
2022,12,26,14:12,월,2022,12,26,15:10,경남,경남,고성,하일,수양,,주택화재비화,주택화재비화,0.05,대한민국 경남 고성 하일,34.9421558,128.1979934
2022,12,26,5:55,월,2022,12,26,6:50,경남,경남,고성,대가,연지,,기타(직접입력),컨테이너화재비화,0.06,대한민국 경남 고성 대가,35.02574,128.2814
2022,12,20,15:51,화,2022,12,20,16:55,경북,경북,성주,선남,용신,입,기타(직접입력),입산자실화추정,0.16,대한민국 경북 성주 선남,35.89751,128.34962
2022,12,19,9:44,월,2022,12,19,10:42,경남,경남,함양,서하,황산,입,기타(직접입력),입산자실화추정,0.03,대한민국 경남 함양 서하,35.63224,127.72244
2022,12,17,21:04,토,2022,12,18,2:10,강원,강원,고성,죽왕,구성,,주택화재비화,주택화재비화,0.3,대한민국 강원 고성 죽왕,38.3298445,128.5242287
2022,12,16,11:49,금,2022,12,16,14:50,경북,경북,청도,금천,동곡,기,기타(직접입력),아궁이재투기,0.06,대한민국 경북 청도 금천,35.6883622,128.8945872
2022,12,15,15:10,목,2022,12,15,16:44,전남,전남,,송지,송호,입,기타(직접입력),입산자실화,0.05,대한민국 전남 nan 송지,34.37663,126.52733
2022,12,10,10:51,토,2022,12,10,11:37,울산,울산,울주,웅촌,대복,기,기타(직접입력),용접,0.02,대한민국 울산 울주 웅촌,35.4642227,129.2086445
2022,12,8,18:24,목,2022,12,8,22:00,경남,경남,양산,원동,용당,입,기타(직접입력),입산자실화추정,0.2,대한민국 경남 양산 원동,35.3624248,128.9207978
2022,12,8,16:44,목,2022,12,8,17:13,충북,충북,청주 청원,오창,일신,입,기타(직접입력),미상,0.05,대한민국 충북 청주 청원 오창,36.740575,127.4564874
2022,12,7,16:08,수,2022,12,7,19:22,전남,전남,고흥,두원,학곡,입,기타(직접입력),입산자실화,0.05,대한민국 전남 고흥 두원,34.6586172,127.2632666
2022,12,4,21:03,일,2022,12,4,22:16,강원,강원,고성,거진,송강,기,기타(직접입력),미상,0.9,대한민국 강원 고성 거진,38.44764,128.45648
2022,12,4,19:26,일,2022,12,4,20:10,경기,경기,용인 처인,원삼,학일,,기타(직접입력),건축물실화,0.13,대한민국 경기 용인 처인 원삼,37.1635327,127.3157031
2022,12,2,13:43,금,2022,12,2,14:40,경남,경남,함양,휴천,호산,,기타(직접입력),건축물실화(전기누전),0.01,대한민국 경남 함양 휴천,35.45121,127.73836
2022,12,1,14:42,목,2022,12,1,17:05,경기,경기,파주,법원,삼방,기,기타(직접입력),미상,0.06,대한민국 경기 파주 법원,37.8315143,126.8711299
2022,11,30,14:39,수,2022,11,30,15:20,경기,경기,양평,개군,향,기,기타(직접입력),미상,0.06,대한민국 경기 양평 개군,37.4276556,127.5345472
2022,11,27,12:43,일,2022,11,27,15:10,전남,전남,여수,화양,이천,기,기타(직접입력),낚시객실화추정,0.05,대한민국 전남 여수 화양,34.69456,127.59725
2022,11,27,11:43,일,2022,11,27,12:05,울산,울산,울주,삼남,교동,입,기타(직접입력),입산자실화,0.01,대한민국 울산 울주 삼남,35.5241741,129.0968291
2022,11,26,11:50,토,2022,11,26,15:10,북부,경기,양주,장흥,울대,입,기타(직접입력),입산자실화추정,0.01,대한민국 경기 양주 장흥,37.7187055,126.9415356
2022,11,25,19:00,금,2022,11,28,14:25,전북,전북,완주,운주,구제,기,기타(직접입력),미상,5.0,대한민국 전북 완주 운주,36.077753,127.3122949
2022,11,23,21:50,수,2022,11,24,0:40,충남,충남,천안 동남,동,구도,,주택화재비화,공장화재비;화,0.16,대한민국 충남 천안 동남 동,36.8067134,127.1516634
2022,11,23,14:29,수,2022,11,23,16:30,경기,경기,남양주,와부,월문,기,기타(직접입력),미상,0.5,대한민국 경기 남양주 와부,37.5862797,127.2188793
2022,11,20,20:11,일,2022,11,21,13:00,북부,경기,양평,양동,금왕,기,기타(직접입력),전투기추락,0.5,대한민국 경기 양평 양동,37.4202671,127.7547601
2022,11,20,12:58,일,2022,11,20,13:35,경기,경기,양평,용문,연수,담,담뱃불실화,담뱃불실화,0.1,대한민국 경기 양평 용문,37.4822294,127.59465
2022,11,19,10:48,토,2022,11,19,11:40,경기,경기,화성,팔탄,노하,기,기타(직접입력),재처리부주의,0.06,대한민국 경기 화성 팔탄,37.1896737,126.8642644
2022,11,15,12:24,화,2022,11,15,15:00,울산,울산,울주,삼동,금곡,입,기타(직접입력),입산자실화,0.5,대한민국 울산 울주 삼동,35.4995302,129.120892
2022,11,11,12:49,금,2022,11,11,13:30,충남,충남,서천,판교,판교,기,기타(직접입력),미상,0.01,대한민국 충남 서천 판교,36.1554157,126.6794253
2022,11,10,16:10,목,2022,11,10,17:36,경북,경북,경주,강동,안계,기,작업장실화,산업현장실화,0.03,대한민국 경북 경주 강동,35.9869747,129.275494
2022,11,10,10:42,목,2022,11,10,16:39,경북,경북,청송,청송,월외,기,기타(직접입력),미상,0.5,대한민국 경북 청송 청송,36.4358,129.0571
2022,11,8,12:51,화,2022,11,8,14:10,전북,전북,김제,금산,삼봉,입,기타(직접입력),무속행위추정,0.02,대한민국 전북 김제 금산,35.71608,126.994463
2022,11,7,14:03,월,2022,11,7,14:50,경남,경남,고성,마암,도전,,주택화재비화,지붕용접불씨점화,0.01,대한민국 경남 고성 마암,35.04729,128.33331
2022,11,7,13:18,월,2022,11,7,14:30,경남,경남,진주,일반성,운천,,농산폐기물소각,농산부산물소각,0.1,대한민국 경남 진주 일반성,35.1569967,128.2813756
2022,11,6,15:13,일,2022,11,6,18:30,전남,전남,완도,금일,총동,입,기타(직접입력),입산자실화,0.05,대한민국 전남 완도 금일,34.3317033,127.0585585
2022,11,6,15:02,일,2022,11,6,15:26,울산,울산,울주,서생,화산,입,기타(직접입력),입산자실화,0.01,대한민국 울산 울주 서생,35.345588,129.2928624
2022,11,6,12:50,일,2022,11,6,18:00,경남,경남,거제,동부,가베,입,기타(직접입력),입산자실화,0.5,대한민국 경남 거제 동부,34.8125002,128.6239323
2022,11,5,13:59,토,2022,11,6,7:11,경북,경북,영양,청기,당,입,기타(직접입력),입산자실화추정,0.8,대한민국 경북 영양 청기,36.6107186,129.0697545
2022,11,3,11:37,목,2022,11,3,12:25,부산,부산,기장,기장,청강,,농산폐기물소각,농산부산물소각,0.03,대한민국 부산 기장 기장,35.2444351,129.2188738
2022,11,3,9:40,목,2022,11,3,10:10,경남,경남,산청,신등,양전,,농산폐기물소각,농산폐기물소각,0.01,대한민국 경남 산청 신등,35.40243,128.00903
2022,11,2,15:48,수,2022,11,2,17:15,전남,전남,신안,압해,가릉,쓰,쓰레기소각,쓰레기소각,0.02,대한민국 전남 신안 압해,34.8616295,126.3147563
2022,11,2,14:11,수,2022,11,2,15:45,경북,경북,안동,길안,천지,입,기타(직접입력),입산자실화,0.4,대한민국 경북 안동 길안,36.4597687,128.8878512
2022,11,2,6:20,수,2022,11,2,15:50,수목원,경기,남양주,별내,용암,입,기타(직접입력),입산자실화(버섯채취자추정),3.0,대한민국 경기 남양주 별내,37.642333,127.1276086
2022,11,1,22:00,화,2022,11,1,22:40,북부,경기,포천,화현,화현,입,기타(직접입력),입산자실화,0.03,대한민국 경기 포천 화현,37.8985558,127.3024664
2022,11,1,15:23,화,2022,11,1,17:30,전남,전남,나주,다시,신광,담,담뱃불실화,담뱃불실화,0.05,대한민국 전남 나주 다시,35.0164504,126.6411305
2022,10,30,12:47,일,2022,10,30,17:00,전남,전남,담양,대덕,운산,쓰,쓰레기소각,생활쓰레기소각(낙엽),0.04,대한민국 전남 담양 대덕,35.249875,127.0382
2022,10,29,11:07,토,2022,10,29,20:00,북부,경기,양평,단월,향소,입,기타(직접입력),입산자실화,0.3,대한민국 경기 양평 단월,37.5411074,127.6727088
2022,10,28,18:21,금,2022,10,28,19:40,경북,경북,김천,감천,무안,기,기타(직접입력),쓰레기소각,0.02,대한민국 경북 김천 감천,36.1991761,128.2439129
2022,10,22,10:20,토,2022,10,22,15:19,동부,강원,정선,임계,도전,담,담뱃불실화,담뱃불실화,0.1,대한민국 강원 정선 임계,37.4962072,128.8481461
2022,10,21,3:14,금,2022,10,21,6:30,경남,경남,창녕,창녕,송현,입,기타(직접입력),입산자실화추정,0.1,대한민국 경남 창녕 창녕,35.5443876,128.4921938
2022,10,20,12:27,목,2022,10,20,17:40,전남,전남,순천,서,학구,입,기타(직접입력),입산자실화,0.3,대한민국 전남 순천 서,34.9090331,127.4796175
2022,10,19,12:38,수,2022,10,19,13:00,울산,울산,울주,삼남,가천,입,기타(직접입력),입산자실화,0.01,대한민국 울산 울주 삼남,35.5241741,129.0968291
2022,10,19,10:57,수,2022,10,19,11:30,대구,대구,달성,하빈,무등,입,기타(직접입력),입산자실화,0.01,대한민국 대구 달성 하빈,35.9012173,128.4420055
2022,10,17,12:41,월,2022,10,17,16:30,전남,전남,나주,남평,광촌,담,담뱃불실화,담뱃불실화,0.1,대한민국 전남 나주 남평,35.0569825,126.8719689
2022,10,1,11:47,토,2022,10,1,14:11,강원,강원,양양,서,이천,기,기타(직접입력),미상,0.01,대한민국 강원 양양 서,38.0715701,128.5865847
2022,9,27,14:52,화,2022,9,27,17:30,경남,경남,산청,산청,범학,입,기타(직접입력),입산자실화추정,0.01,대한민국 경남 산청 산청,35.4154624,127.873663
2022,9,27,13:48,화,2022,9,27,15:32,전남,전남,순천,주암,요곡,입,기타(직접입력),입산자실화,0.01,대한민국 전남 순천 주암,35.07374,127.25237
2022,9,24,15:23,토,2022,9,24,20:00,강원,강원,원주,소초,학곡,기,기타(직접입력),미상,0.01,대한민국 강원 원주 소초,37.4176053,128.0036709
2022,9,23,21:10,금,2022,9,24,0:54,전남,전남,해남,현산,백포,입,기타(직접입력),입산자실화,0.3,대한민국 전남 해남 현산,34.4597152,126.5540028
2022,9,22,14:48,목,2022,9,22,17:42,강원,강원,홍천,두촌,자온,기,기타(직접입력),미상,0.12,대한민국 강원 홍천 두촌,37.867916,128.0170286
2022,9,22,14:11,목,2022,9,22,16:05,전남,전남,완도,금일,총동,쓰,쓰레기소각,쓰레기소각,0.1,대한민국 전남 완도 금일,34.3317033,127.0585585
2022,9,21,17:38,수,2022,9,21,23:50,전북,전북,남원,보절,도룡,입,기타(직접입력),미상,0.35,대한민국 전북 남원 보절,35.5109427,127.4006152
2022,9,21,16:03,수,2022,9,21,17:40,충남,충남,부여,충화,만지,기,기타(직접입력),미상,0.03,대한민국 충남 부여 충화,36.17315,126.82532
2022,7,28,15:54,목,2022,7,28,16:17,충남,충남,청양,청양,적누,입,기타(직접입력),입산자실화,0.1,대한민국 충남 청양 청양,36.4587024,126.8019983
2022,7,5,16:56,화,2022,7,5,18:40,경북,경북,영양,입암,산포,기,기타(직접입력),조류퇴치폭음탄,0.05,대한민국 경북 영양 입암,36.5966127,129.0889488
2022,7,2,14:23,토,2022,7,2,18:40,경북,경북,영양,입암,산포,입,기타(직접입력),입산자실화,0.3,대한민국 경북 영양 입암,36.5966127,129.0889488
2022,6,21,16:19,화,2022,6,21,17:30,충남,충남,부여,외산,회성,기,기타(직접입력),미상,0.01,대한민국 충남 부여 외산,36.32381,126.72037
2022,6,21,14:18,화,2022,6,21,15:50,전북,전북,장수,산서,사상,기,성묘객실화,묘지주변소각,0.02,대한민국 전북 장수 산서,35.5831598,127.399175
2022,6,21,13:42,화,2022,6,21,16:03,경북,경북,영천,화남,안천,담,담뱃불실화,담뱃불실화추정,0.2,대한민국 경북 영천 화남,36.07749,128.89677
2022,6,21,9:23,화,2022,6,21,11:00,충남,충남,공주,신풍,청흥,기,작업장실화,사업장내벌집제거작업불씨,0.01,대한민국 충남 공주 신풍,36.5070333,126.9455613
2022,6,20,13:25,월,2022,6,20,15:00,강원,강원,횡성,안흥,가천,기,작업장실화,산림사업장실화,0.01,대한민국 강원 횡성 안흥,37.4127643,128.1528477
2022,6,5,8:42,일,2022,6,5,9:47,경기,경기,남양주,별내,광전,입,기타(직접입력),입산자실화,0.01,대한민국 경기 남양주 별내,37.642333,127.1276086
2022,6,5,6:47,일,2022,6,5,15:30,경기,경기,남양주,조안,시우,입,기타(직접입력),입산자실화,0.1,대한민국 경기 남양주 조안,37.5463552,127.300391
2022,6,4,14:20,토,2022,6,4,16:00,경기,경기,안양,만안,석수,담,담뱃불실화,담뱃불실화,0.01,대한민국 경기 안양 만안,37.406799,126.9168237
2022,6,3,16:54,금,2022,6,3,21:00,울산,울산,울주,삼동,작동,입,기타(직접입력),입산자실화,0.2,대한민국 울산 울주 삼동,35.4995302,129.120892
2022,6,2,19:58,목,2022,6,3,1:30,북부,경기,남양주,별내,청학,입,기타(직접입력),입산자실화,0.01,대한민국 경기 남양주 별내,37.642333,127.1276086
2022,6,2,15:30,목,2022,6,2,18:40,전북,전북,남원,보절,성시,담,담뱃불실화,담뱃불실화추정,0.3,대한민국 전북 남원 보절,35.5109427,127.4006152
2022,6,2,7:36,목,2022,6,2,15:35,동부,강원,정선,남,무릉,기,기타(직접입력),미상,0.32,대한민국 강원 정선 남,37.2835,128.72975
2022,6,1,17:07,수,2022,6,1,19:00,경북,경북,청송,진보,고현,입,기타(직접입력),입산자실화,0.06,대한민국 경북 청송 진보,36.5286583,129.0501279
2022,6,1,12:22,수,2022,6,1,16:30,경북,경북,봉화,물야,북지,쓰,쓰레기소각,쓰레기소각,0.5,대한민국 경북 봉화 물야,36.97697,128.735148
2022,6,1,10:23,수,2022,6,1,19:10,경기,경기,고양,일산동,사리현,기,작업장실화,용접불씨비화추정,1.0,대한민국 경기 고양 일산동,37.6816091,126.7726954
2022,5,31,19:20,화,2022,5,31,21:00,전북,전북,고창,고수,은사,기,작업장실화,공사장용접불티발화,0.1,대한민국 전북 고창 고수,35.4043921,126.6859694
2022,5,31,16:33,화,2022,5,31,18:31,경북,경북,예천,지보,어신,기,기타(직접입력),양수기전기합선,0.1,대한민국 경북 예천 지보,36.55224,128.39561
2022,5,31,12:51,화,2022,6,1,12:30,대구,대구,달성,하빈,기곡,,농산폐기물소각,농산폐기물소각,5.3,대한민국 대구 달성 하빈,35.9012173,128.4420055
2022,5,31,12:45,화,2022,5,31,15:27,경기,경기,고양,덕양,오금,기,기타(직접입력),미상,0.01,대한민국 경기 고양 덕양,37.6568755,126.831451
2022,5,29,22:25,일,2022,5,29,0:00,경남,경남,거제,하청,덕곡,기,기타(직접입력),아궁아불씨부주의,0.2,대한민국 경남 거제 하청,34.954473,128.6545924
2022,5,29,15:16,일,2022,5,29,18:40,경남,경남,산청,오부,왕촌,입,기타(직접입력),입산자실화,0.01,대한민국 경남 산청 오부,35.48938,127.89185
2022,5,29,12:34,일,2022,5,29,15:43,경남,경남,사천,서포,다평,입,기타(직접입력),입산자실화추정,0.1,대한민국 경남 사천 서포,35.008285,127.976981
2022,5,28,18:36,토,2022,5,28,20:01,경남,경남,함양,휴천,남효,담,담뱃불실화,담뱃불실화,0.15,대한민국 경남 함양 휴천,35.45121,127.73836
2022,5,27,12:50,금,2022,5,27,15:30,경남,경남,함양,마천,추성,,주택화재비화,주택화재,0.1,대한민국 경남 함양 마천,35.386066,127.659212
2022,5,27,12:41,금,2022,5,27,14:30,경남,경남,사천,축동,반용,담,담뱃불실화,담뱃불실화,0.06,대한민국 경남 사천 축동,35.0843994,128.0411936
2022,5,27,10:50,금,2022,5,27,11:25,전북,전북,진안,진안,가림,기,기타(직접입력),미상(입산자실화추정),0.01,대한민국 전북 진안 진안,35.7915,127.4252
2022,5,27,10:40,금,2022,5,27,14:30,경남,경남,창녕,남지,반포,,주택화재비화,주택화재비화,0.1,대한민국 경남 창녕 남지,35.42803,128.43144
2022,5,26,5:23,목,2022,5,26,10:00,경남,경남,밀양,산내,삼양,기,기타(직접입력),미상,0.3,대한민국 경남 밀양 산내,35.58976,128.9114
2022,5,26,4:10,목,2022,5,26,7:20,경기,경기,남양주,화도,묵현,기,기타(직접입력),미상,0.01,대한민국 경기 남양주 화도,37.6302005,127.3179009
2022,5,24,0:18,화,2022,5,24,3:00,전남,전남,순천,송광,후곡,입,기타(직접입력),입산자실화,1.5,대한민국 전남 순천 송광,34.99053,127.24576
2022,5,23,15:55,월,2022,5,23,18:20,경기,경기,여주,점동,장안,기,기타(직접입력),미상,0.13,대한민국 경기 여주 점동,37.2022322,127.71484
2022,5,23,13:49,월,2022,5,23,14:10,경기,경기,화성,서신,백미,기,작업장실화,그라인더작업실화추정,0.02,대한민국 경기 화성 서신,37.1694692,126.7050976
2022,5,22,14:34,일,2022,5,22,18:45,전북,전북,진안,주천,대불,기,기타(직접입력),전봇대발화,0.1,대한민국 전북 진안 주천,35.9705578,127.4025472
2022,5,22,12:49,일,2022,5,22,13:40,충북,충북,괴산,칠성,쌍곡,입,기타(직접입력),입산자실화추정,0.01,대한민국 충북 괴산 칠성,36.7647683,127.8733718
2022,5,21,21:31,토,2022,5,21,23:32,경북,경북,청송,주왕산,항,,농산폐기물소각,농산폐기물소각,0.05,대한민국 경북 청송 주왕산,36.3806953,129.120321
2022,5,21,19:59,토,2022,5,22,7:00,전북,전북,순창,동계,어치,입,기타(직접입력),입산자담뱃불추정,0.3,대한민국 전북 순창 동계,35.45144,127.2511
2022,5,21,17:18,토,2022,5,21,20:30,강원,강원,원주,신림,황둔,기,기타(직접입력),미상,0.01,대한민국 강원 원주 신림,37.2176452,128.0915779
2022,5,21,16:55,토,2022,5,21,18:20,경북,경북,경산,남산,우검,,농산폐기물소각,과수원전지목소각,0.16,대한민국 경북 경산 남산,35.7928135,128.8358765
2022,5,21,15:49,토,2022,5,21,17:30,경남,경남,밀양,산내,삼양,기,기타(직접입력),양봉작업중실화,0.09,대한민국 경남 밀양 산내,35.58976,128.9114
2022,5,21,15:19,토,2022,5,21,18:50,경남,경남,하동,진교,술상,기,낙뢰,낙뢰추정,0.01,대한민국 경남 하동 진교,35.03033,127.89305
2022,5,21,12:19,토,2022,5,21,14:00,경북,경북,경주,현곡,상구,기,기타(직접입력),재투기실화추정,0.03,대한민국 경북 경주 현곡,35.8902571,129.175137
2022,5,20,22:17,금,2022,5,20,22:50,경남,경남,창녕,창녕,여초,담,담뱃불실화,담뱃불실화추정,0.01,대한민국 경남 창녕 창녕,35.5443876,128.4921938
2022,5,20,11:01,금,2022,5,20,18:28,강원,강원,정선,임계,송계,기,기타(직접입력),미상,1.2,대한민국 강원 정선 임계,37.4962072,128.8481461
2022,5,18,14:00,수,2022,5,18,15:40,충남,충남,당진,고대,당진포,입,기타(직접입력),입산자실화,0.6,대한민국 충남 당진 고대,36.936716,126.593784
2022,5,18,13:20,수,2022,5,18,16:10,충남,충남,공주,우성,동대,기,기타(직접입력),차량화재비화,0.9,대한민국 충남 공주 우성,36.4634819,127.0543365
2022,5,18,4:43,수,2022,5,18,10:20,강원,강원,원주,소초,수암,기,기타(직접입력),미상,0.2,대한민국 강원 원주 소초,37.4176053,128.0036709
2022,5,17,12:59,화,2022,5,17,14:32,충남,충남,공주,정안,어물,입,기타(직접입력),등산객담뱃불실화,0.5,대한민국 충남 공주 정안,36.5964474,127.1025991
2022,5,16,23:18,월,2022,5,17,0:36,북부,경기,화성,팔탄,기천,기,기타(직접입력),아궁이불씨비화,0.06,대한민국 경기 화성 팔탄,37.1896737,126.8642644
2022,5,16,17:11,월,2022,5,16,18:30,전북,전북,남원,인월,인월,입,기타(직접입력),입산자실화,0.2,대한민국 전북 남원 인월,35.4633967,127.6016738
2022,5,16,13:40,월,2022,5,16,14:20,전북,전북,남원,송동,신평,입,기타(직접입력),입산자실화,0.03,대한민국 전북 남원 송동,35.3637422,127.342847
2022,5,16,12:15,월,2022,5,16,13:40,충남,충남,아산,음봉,쌍룡,입,기타(직접입력),입산자실화,0.05,대한민국 충남 아산 음봉,36.8490367,127.0113998
2022,5,15,17:36,일,2022,5,15,19:00,강원,강원,홍천,두촌,철정,기,기타(직접입력),화덕불씨부주의,0.18,대한민국 강원 홍천 두촌,37.867916,128.0170286
2022,5,15,15:43,일,2022,5,15,16:50,경기,경기,남양주,,일패,기,기타(직접입력),미상,0.06,대한민국 경기 남양주 nan,37.6498551,127.1634005
2022,5,15,15:00,일,2022,5,15,16:40,경기,경기,안양,동안,비산,입,기타(직접입력),입산자실화,0.05,대한민국 경기 안양 동안,37.3908619,126.9486808
2022,5,15,14:49,일,2022,5,15,20:30,중부,충북,단양,영춘,동대,입,기타(직접입력),입산자(담뱃불)실화추정,2.1,대한민국 충북 단양 영춘,37.0802081,128.4831052
2022,5,15,11:02,일,2022,5,15,12:10,경기,경기,가평,가평,읍내,기,기타(직접입력),미상(담뱃불추정),0.04,대한민국 경기 가평 가평,37.8145038,127.5107764
2022,5,15,5:00,일,2022,5,15,9:30,전북,전북,진안,상전면,주평,입,기타(직접입력),입산자실화추정,0.5,대한민국 전북 진안 상전면,35.85019,127.49544
2022,5,15,2:22,일,2022,5,15,4:50,경북,경북,봉화,봉성,외삼,기,기타(직접입력),차량화재,0.1,대한민국 경북 봉화 봉성,36.8944927,128.8306232
2022,5,14,19:44,토,2022,5,14,21:40,전남,전남,광양,광양,초남,입,기타(직접입력),입산자실화추정,0.3,대한민국 전남 광양 광양,34.9561451,127.587824
2022,5,14,16:24,토,2022,5,14,17:50,서부,전남,고흥,도화,덕중,기,기타(직접입력),성묘객실화,0.1,대한민국 전남 고흥 도화,34.49263,127.32637
2022,5,13,17:41,금,2022,5,13,18:46,충남,충남,천안,동남,구성,담,담뱃불실화,담뱃불실화추정,0.01,대한민국 충남 천안 동남,36.8067134,127.1516634
2022,5,12,13:00,목,2022,5,12,16:00,강원,강원,횡성,안흥,서사,기,기타(직접입력),미상,0.15,대한민국 강원 횡성 안흥,37.4127643,128.1528477
2022,5,12,12:28,목,2022,5,12,13:40,경기,경기,여주,점동,처,담,담뱃불실화,담뱃불실화추정,0.02,대한민국 경기 여주 점동,37.2022322,127.71484
2022,5,12,9:43,목,2022,5,12,11:07,경기,경기,파주,광탄,용미,,주택화재비화,공장화재비화,0.03,대한민국 경기 파주 광탄,37.780549,126.847838
2022,5,9,11:43,월,2022,5,9,13:10,강원,강원,평창,대관령,유천,기,기타(직접입력),영농작업중불씨부주의,0.05,대한민국 강원 평창 대관령,37.663948,128.712694
2022,5,8,22:38,일,2022,5,8,23:50,충북,충북,보은,보은,어암,기,기타(직접입력),연등(촛불)비화,0.2,대한민국 충북 보은 보은,36.4890118,127.729242
2022,5,7,17:25,토,2022,5,7,18:45,전남,전남,해남,현산,읍호,담,담뱃불실화,담뱃불실화,0.2,대한민국 전남 해남 현산,34.4597152,126.5540028
2022,5,5,18:59,목,2022,5,5,20:20,경기,경기,파주,파평,두포,기,작업장실화,산업현장(철근공장)작업중,0.13,대한민국 경기 파주 파평,37.92038,126.83832
2022,5,5,14:17,목,2022,5,5,16:30,경기,경기,양평,서종,수입,기,기타(직접입력),미상,0.15,대한민국 경기 양평 서종,37.609039,127.348047
2022,5,4,14:19,수,2022,5,4,16:25,전남,전남,장흥,부산,호계,입,기타(직접입력),입산자실화,0.1,대한민국 전남 장흥 부산,34.7301,126.90625
2022,5,3,17:45,화,2022,5,3,18:20,전남,전남,보성,회천,영천,담,담뱃불실화,담뱃불실화,0.01,대한민국 전남 보성 회천,34.6886,127.09551
2022,5,2,18:35,월,2022,5,2,22:00,경기,경기,양평,서종,노문,기,기타(직접입력),미상,0.8,대한민국 경기 양평 서종,37.609039,127.348047
2022,5,2,16:35,월,2022,5,2,18:15,경북,경북,봉화,명호,관창,기,기타(직접입력),태양광축전기과열추정,0.01,대한민국 경북 봉화 명호,36.858294,128.897966
2022,5,1,13:53,일,2022,5,1,15:53,충남,충남,금산,진산,엄정,입,기타(직접입력),입산자실화추정,0.3,대한민국 충남 금산 진산,36.1251,127.405
2022,4,26,13:22,화,2022,4,26,17:40,경기,경기,포천,이동,노곡,기,기타(직접입력),미상,0.16,대한민국 경기 포천 이동,38.0354366,127.3666019
2022,4,25,14:45,월,2022,4,25,15:50,전북,전북,진안,상전,주평,입,기타(직접입력),입산자실화추정,0.06,대한민국 전북 진안 상전,35.85019,127.49544
2022,4,25,14:22,월,2022,4,25,16:00,북부,경기,고양,덕양,북한,입,기타(직접입력),입산자실화,0.01,대한민국 경기 고양 덕양,37.6568755,126.831451
2022,4,24,18:37,일,2022,4,24,20:25,경남,경남,산청,단성,월양,입,기타(직접입력),입산자실화추정,0.01,대한민국 경남 산청 단성,35.297069,127.956132
2022,4,24,14:59,일,2022,4,24,16:10,충북,충북,청주 상당,미원,계원,입,기타(직접입력),입산자실화추정,0.1,대한민국 충북 청주 상당 미원,36.6362438,127.6607983
2022,4,24,14:23,일,2022,4,24,16:00,강원,강원,횡성,둔내,화동,기,기타(직접입력),미상,0.02,대한민국 강원 횡성 둔내,37.5100212,128.2212714
2022,4,24,14:19,일,2022,4,24,15:00,경북,경북,포항 남,,대이,입,기타(직접입력),입산자실화,0.01,대한민국 경북 포항 남 nan,36.0086363,129.3588062
2022,4,24,12:40,일,2022,4,24,14:30,경기,경기,양평,서종,노운,기,기타(직접입력),미상,0.2,대한민국 경기 양평 서종,37.609039,127.348047
2022,4,24,12:08,일,2022,4,24,13:25,충남,충남,당진,정미,덕삼,기,작업장실화,산림사업장(벌채지)실화,0.02,대한민국 충남 당진 정미,36.85909,126.56302
2022,4,23,14:56,토,2022,4,23,16:00,충남,충남,아산,탕정,매곡,입,기타(직접입력),입산자실화추정,0.01,대한민국 충남 아산 탕정,36.7882137,127.0845547
2022,4,23,14:19,토,2022,4,23,16:45,경북,경북,봉화,재산,현동,입,기타(직접입력),입산자실화(산야초채취),0.05,대한민국 경북 봉화 재산,36.817516,128.9628136
2022,4,23,12:34,토,2022,4,23,13:38,경기,경기,양주,광적,우고,입,기타(직접입력),입산자실화,0.01,대한민국 경기 양주 광적,37.8238507,126.9826978
2022,4,23,11:19,토,2022,4,23,13:07,충북,충북,영동,학산,도덕,기,기타(직접입력),회목보일러 재취급부주의,2.82,대한민국 충북 영동 학산,36.0984833,127.6837462
2022,4,23,10:48,토,2022,4,23,14:20,전북,전북,순창,풍산,삼촌,기,기타(직접입력),성묘객실화(제사향불씨),0.6,대한민국 전북 순창 풍산,35.33617,127.14999
2022,4,22,21:53,금,2022,4,23,3:00,강원,강원,춘천,서,방동,기,기타(직접입력),미상,0.6,대한민국 강원 춘천 서,37.9040293,127.661879
2022,4,22,15:10,금,2022,4,22,18:00,경북,경북,경주,건천,대곡,쓰,쓰레기소각,쓰레기소각,0.71,대한민국 경북 경주 건천,35.8536424,129.0975128
2022,4,22,12:08,금,2022,4,22,14:32,충남,충남,공주,신풍,청홍,기,작업장실화,산림사업장(조림) 불씨,1.0,대한민국 충남 공주 신풍,36.5070333,126.9455613
2022,4,22,9:41,금,2022,4,22,11:55,중부,충남,서산,해미,산수,입,기타(직접입력),입산자실화(담뱃불),0.06,대한민국 충남 서산 해미,36.7175368,126.5432623
2022,4,21,12:06,목,2022,4,21,15:00,충남,충남,부여,세도,사산,입,기타(직접입력),입산자실화,0.2,대한민국 충남 부여 세도,36.166885,126.9436117
2022,4,21,11:06,목,2022,4,21,11:47,강원,강원,양구,양구,상무통리,기,작업장실화,산업현장용접불씨,0.01,대한민국 강원 양구 양구,38.1096812,127.9900596
2022,4,20,21:17,수,2022,4,21,1:19,경남,경남,창원,진해,죽곡,입,기타(직접입력),입산자실화추정,0.61,대한민국 경남 창원 진해,35.1534417,128.660127
2022,4,20,16:39,수,2022,4,20,17:15,충남,충남,부여,부여,석목,입,기타(직접입력),입산자실화,0.03,대한민국 충남 부여 부여,36.2753678,126.910107
2022,4,20,16:37,수,2022,4,21,8:30,대구,대구,달성,옥포,김흥,입,기타(직접입력),입산자실화9산약초채취)추정,3.18,대한민국 대구 달성 옥포,35.7951001,128.464228
2022,4,20,16:06,수,2022,4,20,18:00,충남,충남,논산,벌곡,오곡,입,기타(직접입력),입산자실화(산마물채취),0.5,대한민국 충남 논산 벌곡,36.2058592,127.2659723
2022,4,20,14:35,수,2022,4,20,16:00,경남,경남,창녕,고암,감,담,담뱃불실화,담뱃불실화추정,0.1,대한민국 경남 창녕 고암,35.57559,128.5153
2022,4,20,14:28,수,2022,4,20,16:00,경기,경기,남양주,조안,심봉,기,작업장실화,산업현장실화,0.01,대한민국 경기 남양주 조안,37.5463552,127.300391
2022,4,20,11:41,수,2022,4,20,17:00,경기,경기,남양주,화도,구암,담,담뱃불실화,담뱃불실화,1.8,대한민국 경기 남양주 화도,37.6293748,127.3182744
2022,4,20,10:40,수,2022,4,20,17:00,중부,충남,예산,삽교,신,쓰,쓰레기소각,쓰레기소각,0.7,대한민국 충남 예산 삽교,36.6798216,126.7515305
2022,4,20,10:25,수,2022,4,20,11:30,전북,전북,남원,운봉,신기,,논밭두렁소각,밭두렁소각,0.15,대한민국 전북 남원 운봉,35.437098,127.5328914
2022,4,19,16:20,화,2022,4,19,19:20,인천,인천,강화,내가,고천,담,담뱃불실화,담뱃불실화,0.69,대한민국 인천 강화 내가,37.7206045,126.3907788
2022,4,19,15:54,화,2022,4,19,18:22,충남,충남,청양,장평,지천,입,기타(직접입력),입산자실화추정,1.0,대한민국 충남 청양 장평,36.345946,126.898754
2022,4,19,14:10,화,2022,4,19,15:30,전북,전북,순창,풍산,우곡,,농산폐기물소각,농산폐기물소각,0.1,대한민국 전북 순창 풍산,35.33617,127.14999
2022,4,19,13:20,화,2022,4,19,15:40,전북,전북,장수,산서,동화,입,기타(직접입력),입산자실화추정,0.1,대한민국 전북 장수 산서,35.5831598,127.399175
2022,4,19,9:00,화,2022,4,19,9:50,전북,전북,남원,대산,수덕,담,담뱃불실화,담뱃불실화,0.01,대한민국 전북 남원 대산,35.4309313,127.3255949
2022,4,18,17:37,월,2022,4,18,18:50,대구,대구,달성,다사,부곡,입,기타(직접입력),입산자실화추정,0.03,대한민국 대구 달성 다사,35.86532,128.457902
2022,4,18,16:10,월,2022,4,18,18:30,전북,전북,무주,무주,대차,기,기타(직접입력),미상(입산자실화추정),0.6,대한민국 전북 무주 무주,36.007,127.6609
2022,4,18,14:10,월,2022,4,18,15:30,경남,경남,하동,진교,금곡,입,기타(직접입력),입산자실화추정,0.2,대한민국 경남 하동 진교,35.03033,127.89305
2022,4,18,11:56,월,2022,4,18,17:00,경북,경북,포항 남,호미곶,대보,입,기타(직접입력),입산자실화,0.2,대한민국 경북 포항 남 호미곶,36.0760228,129.566029
2022,4,17,18:55,일,2022,4,18,10:50,전북,전북,김제,금산,청도,입,기타(직접입력),입산자실화추정,0.35,대한민국 전북 김제 금산,35.71608,126.994463
2022,4,17,17:25,일,2022,4,17,18:30,경기,경기,가평,청평,청평,기,기타(직접입력),미상,0.05,대한민국 경기 가평 청평,37.735508,127.4266359
2022,4,17,15:18,일,2022,4,17,21:30,전남,전남,순천,송광,후곡,입,기타(직접입력),입산자실화,1.0,대한민국 전남 순천 송광,34.99053,127.24576
2022,4,17,12:31,일,2022,4,17,14:30,강원,강원,인제,남,도전,기,기타(직접입력),푹죽실화,0.2,대한민국 강원 인제 남,37.98107,128.09953
2022,4,17,12:28,일,2022,4,17,14:00,전남,전남,화순,화순,세량,입,기타(직접입력),입산자실화추정,0.2,대한민국 전남 화순 화순,35.0513137,126.9631644
2022,4,16,14:20,토,2022,4,16,14:55,경기,경기,양평,용문,연수,기,기타(직접입력),미상,0.02,대한민국 경기 양평 용문,37.4822294,127.59465
2022,4,16,12:42,토,2022,4,16,13:10,충남,충남,예산,대술,마전,입,기타(직접입력),입산자실화추정,0.08,대한민국 충남 예산 대술,36.6563944,126.8915751
2022,4,15,17:49,금,2022,4,15,20:00,강원,강원,춘천,남산,강촌,기,기타(직접입력),미상,0.02,대한민국 강원 춘천 남산,37.782624,127.6374167
2022,4,15,13:42,금,2022,4,15,15:10,경기,경기,양주,은현,운암,,논밭두렁소각,밭두렁소각,0.01,대한민국 경기 양주 은현,37.8686013,127.0232139
2022,4,12,20:13,화,2022,4,12,20:55,경기,경기,안양,만안,석수,담,담뱃불실화,담뱃불실화,0.01,대한민국 경기 안양 만안,37.406799,126.9168237
2022,4,12,17:15,화,2022,4,12,18:20,전북,전북,장수,산서,하월,,논밭두렁소각,밭두렁소각,0.04,대한민국 전북 장수 산서,35.5831598,127.399175
2022,4,12,16:56,화,2022,4,12,18:30,전남,전남,순천,주암,광천,기,기타(직접입력),양봉장불씨취급부주의,1.0,대한민국 전남 순천 주암,35.07374,127.25237
2022,4,12,16:20,화,2022,4,12,17:20,충남,충남,아산,영인,상성,입,기타(직접입력),입산자실화,0.05,대한민국 충남 아산 영인,36.8542334,126.9532319
2022,4,12,16:08,화,2022,4,12,17:38,충남,충남,공주,우성,방문,입,기타(직접입력),입산자실화추정,0.21,대한민국 충남 공주 우성,36.4634819,127.0543365
2022,4,12,15:14,화,2022,4,12,17:20,강원,강원,홍천,서,길곡,기,기타(직접입력),잔디밭불씨부주의,0.3,대한민국 강원 홍천 서,37.67158,127.63637
2022,4,12,14:41,화,2022,4,12,15:35,전남,전남,장성,장성,단광,입,기타(직접입력),입산자실화추정,0.3,대한민국 전남 장성 장성,35.3001204,126.7796823
2022,4,12,13:21,화,2022,4,12,15:30,과학원,경기,화성,봉담,내,기,기타(직접입력),불씨취급부주의(가스버너),0.27,대한민국 경기 화성 봉담,37.2224559,126.947203
2022,4,11,18:34,월,2022,4,11,0:00,울산,울산,울주,두서,내와,,주택화재비화,주택화재비화,0.5,대한민국 울산 울주 두서,35.6689239,129.1718294
2022,4,11,17:48,월,2022,4,11,18:26,경북,경북,의성,단촌,하화,입,기타(직접입력),입산자실화,0.15,대한민국 경북 의성 단촌,36.39344,128.67907
2022,4,11,13:21,월,2022,4,11,14:30,충북,충북,영동,추풍령,작점,기,기타(직접입력),미상,0.14,대한민국 충북 영동 추풍령,36.2128103,127.9963927
2022,4,11,11:21,월,2022,4,11,21:11,강원,강원,정선,남,문곡,기,기타(직접입력),철도전차선스파크,3.5,대한민국 강원 정선 남,37.2835,128.72975
2022,4,11,9:09,월,2022,4,11,11:20,대구,대구,달성,유가,양,입,기타(직접입력),입산자실화추정,0.01,대한민국 대구 달성 유가,35.6940422,128.4597255
2022,4,10,21:46,일,2022,4,11,9:00,경남,경남,양산,원동,영담,입,기타(직접입력),입산자(담뱃불)실화추정,0.8,대한민국 경남 양산 원동,35.3624248,128.9207978
2022,4,10,18:00,일,2022,4,10,20:20,전북,전북,무주,설천,삼공,,농산폐기물소각,농산물소각,1.0,대한민국 전북 무주 설천,36.0122451,127.7882931
2022,4,10,17:11,일,2022,4,10,18:50,전남,전남,광양,광양,초남,입,기타(직접입력),입산자실화,0.5,대한민국 전남 광양 광양,34.9561451,127.587824
2022,4,10,15:58,일,2022,4,10,18:00,경기,경기,광주,오포,신현,기,기타(직접입력),미상,0.02,대한민국 경기 광주 오포,37.3608409,127.2156926
2022,4,10,15:40,일,2022,4,12,21:30,강원,강원,양구,양구,송청,쓰,쓰레기소각,생활쓰레기소각(낙엽),716.31,대한민국 강원 양구 양구,38.1096812,127.9900596
2022,4,10,14:46,일,2022,4,10,18:20,경북,경북,경주,양북,입천,입,기타(직접입력),입산자실화(산악오토바이),2.5,대한민국 경북 경주 양북,35.791449,129.4413464
2022,4,10,14:02,일,2022,4,10,14:50,경남,경남,거창,주상,성기,,기타(직접입력),컨테이너화재비화,0.01,대한민국 경남 거창 주상,35.7493326,127.914659
2022,4,10,13:44,일,2022,4,10,15:00,경기,경기,안양,만안,석수,담,담뱃불실화,담뱃불실화,0.02,대한민국 경기 안양 만안,37.406799,126.9168237
2022,4,10,13:15,일,2022,4,10,20:40,경기,경기,양주,은현,봉암,기,기타(직접입력),미상,1.24,대한민국 경기 양주 은현,37.8686013,127.0232139
2022,4,10,13:10,일,2022,4,13,0:00,경북,경북,군위,삼국유사,화북,입,기타(직접입력),입산자실화,225.72,대한민국 경북 군위 삼국유사,36.1610333,128.8939559
2022,4,10,13:09,일,2022,4,10,16:30,강원,강원,화천,상서,파포,기,기타(직접입력),미상,3.3,대한민국 강원 화천 상서,38.1574349,127.649696
2022,4,10,13:05,일,2022,4,10,15:50,경기,경기,파주,법원,직천,기,기타(직접입력),미상,0.06,대한민국 경기 파주 법원,37.8325575,126.8805239
2022,4,10,13:04,일,2022,4,10,14:00,경기,경기,고양,덕양,현천,입,기타(직접입력),입산자실화,0.03,대한민국 경기 고양 덕양,37.6568755,126.831451
2022,4,10,12:47,일,2022,4,10,14:20,강원,강원,고성,토성,원암,기,기타(직접입력),차량화재,0.94,대한민국 강원 고성 토성,38.253939,128.5631977
2022,4,10,11:31,일,2022,4,10,13:10,경기,경기,파주,광탄,마장,기,성묘객실화,성묘객실화,0.08,대한민국 경기 파주 광탄,37.780549,126.847838
2022,4,10,11:15,일,2022,4,10,14:15,부산,부산,기장,기장,내,기,기타(직접입력),비닐하우스화재비화,2.0,대한민국 부산 기장 기장,35.2444351,129.2188738
2022,4,10,10:53,일,2022,4,10,11:25,경기,경기,양평,개군,항,쓰,쓰레기소각,쓰레기소각,0.05,대한민국 경기 양평 개군,37.4276556,127.5345472
2022,4,9,16:20,토,2022,4,9,18:00,경북,경북,영양,일월,칠성,입,기타(직접입력),입산자실화,0.2,대한민국 경북 영양 일월,36.7014479,129.1277061
2022,4,9,15:05,토,2022,4,9,16:10,충남,충남,서천,마산,나궁,쓰,쓰레기소각,쓰레기소각,0.1,대한민국 충남 서천 마산,36.120502,126.795058
2022,4,9,13:54,토,2022,4,9,21:00,경기,경기,남양주,진접,내각,기,기타(직접입력),미상,1.0,대한민국 경기 남양주 진접,37.7200538,127.2032505
2022,4,9,13:49,토,2022,4,9,18:18,경기,경기,남양주,진접,진벌,기,성묘객실화,성묘객실화,8.0,대한민국 경기 남양주 진접,37.7200538,127.2032505
2022,4,9,13:03,토,2022,4,9,15:10,경남,경남,하동,횡천,월평,,주택화재비화,창고화재전이,1.8,대한민국 경남 하동 횡천,35.0992713,127.8016787
2022,4,9,12:49,토,2022,4,9,13:50,경기,경기,고양,덕양,주교,기,작업장실화,용접작업불씨,0.01,대한민국 경기 고양 덕양,37.6568755,126.831451
2022,4,9,12:16,토,2022,4,9,16:36,경기,경기,남양주,와부,월문,기,기타(직접입력),미상,1.5,대한민국 경기 남양주 와부,37.5862797,127.2188793
2022,4,9,12:01,토,2022,4,9,14:33,경기,경기,연천,전곡,고능,쓰,쓰레기소각,쓰레기소각,1.6,대한민국 경기 연천 전곡,38.0245987,127.0718642
2022,4,9,11:30,토,2022,4,9,13:00,전북,전북,남원,아영,아곡,,논밭두렁소각,밭두렁소각,0.2,대한민국 전북 남원 아영,35.5067484,127.6097815
2022,4,9,10:45,토,2022,4,9,11:45,전남,전남,장흥,부산,호계,입,기타(직접입력),입산자실화,0.12,대한민국 전남 장흥 부산,34.7301,126.90625
2022,4,9,10:31,토,2022,4,10,9:00,충남,충남,서산,운산,고풍,쓰,쓰레기소각,쓰레기소각,158.11,대한민국 충남 서산 운산,36.8092384,126.5872774
2022,4,9,9:45,토,2022,4,10,8:20,경북,경북,봉화,석포,석포,기,방화,방화추정,3.0,대한민국 경북 봉화 석포,37.0452757,129.0612253
2022,4,8,17:10,금,2022,4,8,20:00,전북,전북,남원,산내,종황,입,기타(직접입력),입산자실화추정,0.09,대한민국 전북 남원 산내,35.40046,127.61642
2022,4,8,13:09,금,2022,4,8,15:35,경기,경기,안산,단원,대부북,기,기타(직접입력),바베큐그릴재투기,0.05,대한민국 경기 안산 단원,37.35009,126.822414
2022,4,8,11:43,금,2022,4,8,14:20,전남,전남,보성,보성,옥암,입,기타(직접입력),입산자실화,0.1,대한민국 전남 보성 보성,34.7594927,127.08557
2022,4,8,10:07,금,2022,4,8,11:07,경남,경남,창원,의창,봉림,입,기타(직접입력),입산자실화추정,0.1,대한민국 경남 창원 의창,35.2537,128.6401
2022,4,8,8:52,금,2022,4,8,11:00,충남,충남,예산,대흥,대률,기,기타(직접입력),미상,0.1,대한민국 충남 예산 대흥,36.62683,126.81703
2022,4,7,18:40,목,2022,4,7,21:30,전남,전남,순천,해룡,도룡,,기타(직접입력),움막화재,0.1,대한민국 전남 순천 해룡,34.9221109,127.4102094
2022,4,7,15:28,목,2022,4,7,16:03,경기,경기,용인,기흥,마북,쓰,쓰레기소각,쓰레기소각,0.03,대한민국 경기 용인 기흥,37.2755132,127.1160129
2022,4,7,14:30,목,2022,4,7,16:18,전북,전북,진안,성수,좌산,입,기타(직접입력),입산자실화추정,0.4,대한민국 전북 진안 성수,35.71361,127.32553
2022,4,7,13:59,목,2022,4,7,16:29,경기,경기,성남,중원,상대원,기,기타(직접입력),미상,0.01,대한민국 경기 성남 중원,37.4304122,127.1372922
2022,4,6,19:10,수,2022,4,6,20:51,경남,경남,밀양,무안,정곡,,주택화재비화,주택화재(주택내불씨부주의),0.18,대한민국 경남 밀양 무안,35.46848,128.65934
2022,4,6,15:06,수,2022,4,6,16:00,경기,경기,여주,세종대왕,광대,담,담뱃불실화,담뱃불실화,0.02,대한민국 경기 여주 세종대왕,37.3001752,127.5735064
2022,4,6,14:34,수,2022,4,6,15:25,인천,인천,강화,화도,사기,기,기타(직접입력),재불씨취급부주의(캠핑장),0.09,대한민국 인천 강화 화도,37.6376595,126.4191692
2022,4,6,14:00,수,2022,4,6,14:45,경남,경남,함양,휴천,목현,입,기타(직접입력),입산자실화추정,0.14,대한민국 경남 함양 휴천,35.45121,127.73836
2022,4,6,13:34,수,2022,4,6,16:00,경북,경북,청송,진보,월전,기,작업장실화,용접불꽃비화,0.1,대한민국 경북 청송 진보,36.5286583,129.0501279
2022,4,5,15:45,화,2022,4,5,17:42,인천,인천,남동,,도림,기,기타(직접입력),연통불씨취급부주의,0.05,대한민국 인천 남동 nan,37.446902,126.7315126
2022,4,5,15:37,화,2022,4,5,16:25,경기,경기,용인,기흥,동백,담,담뱃불실화,담뱃불실화,0.03,대한민국 경기 용인 기흥,37.2755132,127.1160129
2022,4,5,13:29,화,2022,4,12,18:00,경북,경북,봉화,봉화,화천,기,기타(직접입력),화목보일러재투기,130.0,대한민국 경북 봉화 봉화,36.8914813,128.7268956
2022,4,5,13:20,화,2022,4,5,14:00,경북,경북,김천,감천,용호,쓰,쓰레기소각,쓰레기소각,0.16,대한민국 경북 김천 감천,36.1991761,128.2439129
2022,4,5,11:45,화,2022,4,5,13:00,충남,충남,청양,청남,내직,입,기타(직접입력),입산자실화,0.02,대한민국 충남 청양 청남,36.3547334,126.9517697
2022,4,4,19:43,월,2022,4,5,0:50,경기,경기,하남,,학암,기,기타(직접입력),미상,8.0,대한민국 경기 하남 nan,37.5397035,127.2235329
2022,4,4,13:43,월,2022,4,4,14:20,경기,경기,포천,군내,하성북,담,담뱃불실화,담뱃불실화,0.1,대한민국 경기 포천 군내,37.8950357,127.2043898
2022,4,4,12:15,월,2022,4,4,13:00,경기,경기,양평,양동,금왕,쓰,쓰레기소각,쓰레기소각,0.01,대한민국 경기 양평 양동,37.4202671,127.7547601
2022,4,4,7:06,월,2022,4,4,13:00,남부,경북,봉화,소천,남회룡,기,기타(직접입력),미상,3.5,대한민국 경북 봉화 소천,36.980028,128.657778
2022,4,3,14:27,일,2022,4,3,15:09,울산,울산,울주,범서,두산,쓰,쓰레기소각,사찰내쓰레기소각,0.1,대한민국 울산 울주 범서,35.5707493,129.2368105
2022,4,3,12:00,일,2022,4,3,12:40,전북,전북,남원,,내척,,농산폐기물소각,농산폐기물소각,0.09,대한민국 전북 남원 nan,35.4163118,127.3903713
2022,4,2,15:53,토,2022,4,2,17:00,경기,경기,양평,양서,국수,입,기타(직접입력),입산자담뱃불추정,0.03,대한민국 경기 양평 양서,37.5475976,127.3278786
2022,4,2,15:22,토,2022,4,3,14:40,전북,전북,무주,설천,소천,기,기타(직접입력),양봉훈증불씨취급부주의,5.0,대한민국 전북 무주 설천,36.0122451,127.7882931
2022,4,2,14:05,토,2022,4,2,16:00,경기,경기,여주,세종대왕,광내,쓰,쓰레기소각,생활쓰레기(낙엽),0.15,대한민국 경기 여주 세종대왕,37.3001752,127.5735064
2022,4,2,13:35,토,2022,4,2,16:15,경기,경기,남양주,,이패,,농산폐기물소각,농산폐기물소각,0.09,대한민국 경기 남양주 nan,37.6498551,127.1634005
2022,4,1,18:10,금,2022,4,1,19:15,전북,전북,장수,산서,봉서,입,기타(직접입력),입산자실화추정,0.1,대한민국 전북 장수 산서,35.5831598,127.399175
2022,4,1,13:46,금,2022,4,1,14:59,경남,경남,사천,정동,화암,기,기타(직접입력),군비행기추착비화,0.01,대한민국 경남 사천 정동,35.0388614,128.1549294
2022,4,1,1:55,금,2022,4,1,5:05,전남,전남,순천,서,구상,입,기타(직접입력),입산자실화추정,1.0,대한민국 전남 순천 서,34.9090331,127.4796175
2022,3,29,19:21,화,2022,3,29,21:00,경기,경기,양주,광적,비암,기,기타(직접입력),미상,0.01,대한민국 경기 양주 광적,37.8238507,126.9826978
2022,3,29,14:51,화,2022,3,29,16:15,경남,경남,사천,서포,자혜,,농산폐기물소각,농산폐기물소각,0.05,대한민국 경남 사천 서포,35.008285,127.976981
2022,3,28,12:07,월,2022,3,28,13:25,경기,경기,가평,청평,삼회,쓰,쓰레기소각,생활쓰레기(낙엽),0.09,대한민국 경기 가평 청평,37.735508,127.4266359
2022,3,28,11:00,월,2022,3,28,12:15,경기,경기,양평,청운,가현,기,작업장실화,용접작업중불꽃,0.3,대한민국 경기 양평 청운,37.552611,127.712092
2022,3,27,22:30,일,2022,3,28,0:50,경남,경남,창녕,유어,가회,,주택화재비화,주택화재비화,0.1,대한민국 경남 창녕 유어,35.51425,128.41769
2022,3,23,16:28,수,2022,3,23,17:50,부산,부산,기장,기장,청강,기,기타(직접입력),미상,0.33,대한민국 부산 기장 기장,35.2444351,129.2188738
2022,3,22,15:15,화,2022,3,22,16:15,충남,충남,부여,임천,두곡,입,기타(직접입력),입산자실화,0.09,대한민국 충남 부여 임천,36.17341,126.88718
2022,3,16,17:55,수,2022,3,16,20:40,경북,경북,김천,농소,봉곡,기,기타(직접입력),화기사용주부의,0.48,대한민국 경북 김천 농소,36.105265,128.172739
2022,3,12,23:59,토,2022,3,13,1:20,경북,경북,의성,의성,비봉,담,담뱃불실화,담뱃불실화,0.15,대한민국 경북 의성 의성,36.35336,128.693128
2022,3,12,12:49,토,2022,3,12,19:21,전남,전남,함평,나산,월봉,기,기타(직접입력),성묘객실화,3.0,대한민국 전남 함평 나산,35.1116785,126.6194909
2022,3,11,16:42,금,2022,3,11,17:30,전북,전북,남원,주생,낙동,담,담뱃불실화,담뱃불실화,0.01,대한민국 전북 남원 주생,35.3767264,127.3170129
2022,3,11,15:20,금,2022,3,11,16:10,경기,경기,화성,매송,원평,기,기타(직접입력),미상,0.3,대한민국 경기 화성 매송,37.2647244,126.8884091
2022,3,11,14:16,금,2022,3,11,15:30,전북,전북,남원,수지,고평,입,기타(직접입력),입산자실화,0.04,대한민국 전북 남원 수지,35.33282,127.37085
2022,3,10,15:16,목,2022,3,10,16:43,경기,경기,용인 처인,남사,북,기,기타(직접입력),조사중,0.2,대한민국 경기 용인 처인 남사,37.1538074,127.1707932
2022,3,10,14:04,목,2022,3,10,15:46,충남,충남,공주,우성,내산,담,담뱃불실화,담뱃불실화,0.1,대한민국 충남 공주 우성,36.4634819,127.0543365
2022,3,10,2:05,목,2022,3,10,17:00,남부,경북,경주,외동,녹동,입,기타(직접입력),입산자실화,1.16,대한민국 경북 경주 외동,35.7169413,129.3259176
2022,3,9,17:40,수,2022,3,9,19:30,경기,경기,광주,초월,학동,기,기타(직접입력),미상,0.06,대한민국 경기 광주 초월,37.3733591,127.2999508
2022,3,9,14:50,수,2022,3,9,16:49,전북,전북,임실,강진,학석,기,작업장실화,용접불꽃(축사),0.3,대한민국 전북 임실 강진,35.54734,127.1415
2022,3,9,14:35,수,2022,3,9,16:14,전북,전북,장수,산서,오산,입,기타(직접입력),입산자실화추정,0.2,대한민국 전북 장수 산서,35.5831598,127.399175
2022,3,9,14:17,수,2022,3,9,16:12,경남,경남,창녕,고암,간상,,농산폐기물소각,농산폐기물소각,0.1,대한민국 경남 창녕 고암,35.57559,128.5153
2022,3,9,14:09,수,2022,3,9,18:55,경기,경기,가평,가평,개곡,입,기타(직접입력),입산자실화,1.3,대한민국 경기 가평 가평,37.8145038,127.5107764
2022,3,8,23:39,화,2022,3,9,10:00,경기,경기,수원 장안,장안,상광교,기,기타(직접입력),미상,2.15,대한민국 경기 수원 장안 장안,37.2927969,126.995589
2022,3,8,14:19,화,2022,3,8,17:35,강원,강원,홍천,북방,원소,쓰,쓰레기소각,생활쓰레기소각추정,1.1,대한민국 강원 홍천 북방,37.709649,127.861274
2022,3,7,15:04,월,2022,3,7,16:10,충남,충남,당진,대호지,적서,입,기타(직접입력),입산자실화,0.03,대한민국 충남 당진 대호지,36.90247,126.51549
2022,3,7,14:28,월,2022,3,7,15:10,경기,경기,고양,덕양,달산,쓰,쓰레기소각,생활쓰레기소각(낙엽),0.01,대한민국 경기 고양 덕양,37.6568755,126.831451
2022,3,6,17:54,일,2022,3,6,18:15,경남,경남,사천,사천,구암,,농산폐기물소각,농산폐기물소각,0.01,대한민국 경남 사천 사천,35.0933974,128.0903825
2022,3,6,15:45,일,2022,3,7,2:00,울산,울산,울주,언양,직동,입,기타(직접입력),입산자실화,11.0,대한민국 울산 울주 언양,35.563255,129.124937
2022,3,6,14:02,일,2022,3,6,16:40,경남,경남,산청,단성,길,기,기타(직접입력),드론추락의베터리폭발,0.5,대한민국 경남 산청 단성,35.297069,127.956132
2022,3,6,13:04,일,2022,3,6,15:20,충남,충남,부여,부여,현북,입,기타(직접입력),입산자실화,0.06,대한민국 충남 부여 부여,36.2753678,126.910107
2022,3,6,10:42,일,2022,3,6,12:00,경남,경남,함양,서하,운곡,입,기타(직접입력),입산자실화추정,0.03,대한민국 경남 함양 서하,35.63224,127.72244
2022,3,5,19:15,토,2022,3,13,11:00,대구,대구,달성,가창,오,기,기타(직접입력),산불비화추정,22.96,대한민국 대구 달성 가창,35.8012472,128.6225196
2022,3,5,16:24,토,2022,3,5,17:40,경남,경남,밀양,무안,모로,쓰,쓰레기소각,생활쓰레기소각추정,0.01,대한민국 경남 밀양 무안,35.46848,128.65934
2022,3,5,15:30,토,2022,3,5,17:50,충남,충남,당진,송산,명산,기,기타(직접입력),미상,5.0,대한민국 충남 당진 송산,36.813393,126.774422
2022,3,5,15:05,토,2022,3,5,15:56,충남,충남,청양,남양,신왕,기,작업장실화,산럽현장(용접)실화,0.02,대한민국 충남 청양 남양,36.400777,126.776892
2022,3,5,14:00,토,2022,3,5,15:49,경남,경남,거창,거창,양평,입,기타(직접입력),입산자실화추정,0.7,대한민국 경남 거창 거창,35.7059427,128.0578476
2022,3,5,13:46,토,2022,3,5,19:00,경북,경북,영주,풍기,산법,,논밭두렁소각,묵밭폐기물소각,3.86,대한민국 경북 영주 풍기,36.8740554,128.5234721
2022,3,4,21:54,금,2022,3,5,9:03,경남,경남,함양,마천,가흥,입,기타(직접입력),입산자실화,16.3,대한민국 경남 함양 마천,35.386066,127.659212
2022,3,4,18:05,금,2022,3,4,20:30,경기,경기,광주,초월,신월,,기타(직접입력),건축물실화,0.09,대한민국 경기 광주 초월,37.3733591,127.2999508
2022,3,4,17:14,금,2022,3,5,18:00,서울,서울,강남,강남,개포,,주택화재비화,주택화재비화,1.8,대한민국 서울 강남 강남,37.4979497,127.0275574
2022,3,4,16:05,금,2022,3,4,17:24,충남,충남,아산,염치,방현,기,기타(직접입력),아궁이불씨부주의,0.77,대한민국 충남 아산 염치,36.82003,126.98627
2022,3,4,15:46,금,2022,3,4,16:35,경북,경북,구미,옥성,옥관,담,담뱃불실화,담뱃불실화,0.01,대한민국 경북 구미 옥성,36.2968563,128.2781837
2022,3,4,12:45,금,2022,3,11,17:00,강원,강원,영월,김삿갓,외룡,기,기타(직접입력),화목보일러불씨,184.01,대한민국 강원 영월 김삿갓,37.0844417,128.6012452
2022,3,4,2:34,금,2022,3,4,9:00,경북,경북,성주,초전,소성,기,기타(직접입력),가로등누전(CCTV확인),6.54,대한민국 경북 성주 초전,35.976062,128.264466
2022,3,4,1:01,금,2022,3,4,1:50,인천,인천,강화,길상,온수,기,기타(직접입력),미상,0.01,대한민국 인천 강화 길상,37.63804,126.490488
2022,3,3,18:01,목,2022,3,3,19:00,경북,경북,성주,선남,명포,,주택화재비화,공장화재비화,0.2,대한민국 경북 성주 선남,35.89751,128.34962
2022,3,3,16:54,목,2022,3,3,18:00,경북,경북,영천,청통,신덕,담,담뱃불실화,담뱃불실화,0.2,대한민국 경북 영천 청통,35.99243,128.82626
2022,3,3,15:04,목,2022,3,3,16:55,경기,경기,안성,일죽,월정,,농산폐기물소각,농산폐기물소각,0.13,대한민국 경기 안성 일죽,37.093363,127.477933
2022,3,3,14:45,목,2022,3,3,15:30,경기,경기,고양,덕양,현천,입,기타(직접입력),입산자실화,0.01,대한민국 경기 고양 덕양,37.6568755,126.831451
2022,3,3,13:37,목,2022,3,3,15:40,경기,경기,양주,광적,우고,기,기타(직접입력),미상,0.01,대한민국 경기 양주 광적,37.8238507,126.9826978
2022,3,3,12:39,목,2022,3,3,14:15,경남,경남,창원 의창,,소담,입,기타(직접입력),입산자실화추정,0.45,대한민국 경남 창원 의창 nan,35.3287395,128.5845699
2022,3,1,17:21,화,2022,3,1,18:17,충남,충남,홍성,서부,상황,기,기타(직접입력),미상(입산자실화추정),0.05,대한민국 충남 홍성 서부,36.56301,126.49107
2022,2,28,17:26,월,2022,2,28,18:50,충북,충북,단양,대강,성금,입,기타(직접입력),입산자실화추정,0.02,대한민국 충북 단양 대강,36.8673283,128.3746519
2022,2,28,13:46,월,2022,2,28,15:20,경기,경기,용인 처인,남사,방아,,농산폐기물소각,농산부산물소각,0.03,대한민국 경기 용인 처인 남사,37.1538074,127.1707932
2022,2,27,17:13,일,2022,2,27,20:00,경북,경북,영천,화남,대천,,농산폐기물소각,과수원전지목소각,0.2,대한민국 경북 영천 화남,36.07749,128.89677
2022,2,27,16:35,일,2022,2,27,17:40,충남,충남,아산,음봉,신정,입,기타(직접입력),입산자실화추정,0.05,대한민국 충남 아산 음봉,36.8490367,127.0113998
2022,2,27,14:25,일,2022,2,27,18:10,충남,충남,태안,이원,내,입,기타(직접입력),입산자실화,1.5,대한민국 충남 태안 이원,36.9825959,126.3185457
2022,2,27,14:00,일,2022,2,27,18:00,충남,충남,홍성,결성,성곡,,농산폐기물소각,농산부산물소각,0.14,대한민국 충남 홍성 결성,36.54898,126.54708
2022,2,27,13:56,일,2022,2,27,15:30,충남,충남,당진,석문,장고항,입,기타(직접입력),입산자실화,0.2,대한민국 충남 당진 석문,37.0096458,126.5889323
2022,2,27,13:53,일,2022,2,27,14:55,경기,경기,파주,탄현,갈현,쓰,쓰레기소각,쓰레기소각(생활)추정,0.02,대한민국 경기 파주 탄현,37.8042615,126.7186775
2022,2,26,21:02,토,2022,2,28,14:10,대구,대구,달성,가창,용계,입,기타(직접입력),입산자실화,88.63,대한민국 대구 달성 가창,35.8012472,128.6225196
2022,2,26,16:41,토,2022,2,26,19:00,경북,경북,봉화,봉화,내성,기,기타(직접입력),연탄재투기,0.2,대한민국 경북 봉화 봉화,36.8914813,128.7268956
2022,2,26,15:16,토,2022,2,26,23:10,경북,경북,문경,문경,평천,입,기타(직접입력),입산자실화,18.5,대한민국 경북 문경 문경,36.5858541,128.1870612
2022,2,26,13:45,토,2022,2,26,18:30,전남,전남,완도,완도,화흥,기,성묘객실화,성묘객실화(담뱃불),0.2,대한민국 전남 완도 완도,34.3448887,126.6910588
2022,2,26,11:59,토,2022,2,26,13:00,충북,충북,청주 서원,현도,동계,입,기타(직접입력),입산자실화추정,0.5,대한민국 충북 청주 서원 현도,36.4759123,127.4267254
2022,2,26,7:58,토,2022,2,26,9:20,강원,강원,횡성,서원,창촌,기,기타(직접입력),화목보일러재투기,0.06,대한민국 강원 횡성 서원,37.4902574,127.8529234
2022,2,26,5:43,토,2022,2,26,6:50,인천,인천,강화,송해,양야,기,기타(직접입력),조사중(화목난로재불씨추정),0.06,대한민국 인천 강화 송해,37.7697134,126.4606061
2022,2,25,21:03,금,2022,2,25,23:00,경남,경남,함양,마천,창원,기,기타(직접입력),아궁이재취급부주의,0.11,대한민국 경남 함양 마천,35.386066,127.659212
2022,2,25,20:03,금,2022,2,25,21:00,충북,충북,음성,맹동,통동,입,기타(직접입력),입산자실화추정,0.2,대한민국 충북 음성 맹동,36.9227101,127.5566228
2022,2,25,14:25,금,2022,2,25,23:00,경남,경남,함양,함양,죽림,입,기타(직접입력),입산자실화추정,8.03,대한민국 경남 함양 함양,35.5204145,127.7252966
2022,2,25,14:17,금,2022,2,25,16:31,전남,전남,순천,상사,흘산,,농산폐기물소각,농산폐기물소각,2.0,대한민국 전남 순천 상사,34.93472,127.4271
2022,2,25,14:10,금,2022,2,25,17:05,전남,전남,고흥,두원,학곡,기,기타(직접입력),불씨취급부주의,0.5,대한민국 전남 고흥 두원,34.6586172,127.2632666
2022,2,25,5:16,금,2022,2,25,7:37,경북,경북,김천,구성,금평,기,기타(직접입력),화목보일러재투기,0.91,대한민국 경북 김천 구성,36.031047,128.039395
2022,2,24,17:55,목,2022,2,24,20:15,강원,강원,화천,하남,계성,기,기타(직접입력),화목보일러재투기,1.0,대한민국 강원 화천 하남,38.0587633,127.6673357
2022,2,24,16:10,목,2022,2,24,17:30,경기,경기,광주,초월,선동,담,담뱃불실화,담뱃불실화,0.09,대한민국 경기 광주 초월,37.3733591,127.2999508
2022,2,24,15:05,목,2022,2,24,18:30,경북,경북,상주,모서,득수,기,기타(직접입력),모닥불비화,0.3,대한민국 경북 상주 모서,36.343637,127.96122
2022,2,24,13:58,목,2022,2,24,15:47,강원,강원,홍천,두촌,역내,기,작업장실화,산업현장실화(공사장용접),0.6,대한민국 강원 홍천 두촌,37.867916,128.0170286
2022,2,24,13:43,목,2022,2,24,16:30,충남,충남,공주,우성,옥성,입,기타(직접입력),입산자실화,0.15,대한민국 충남 공주 우성,36.4634819,127.0543365
2022,2,24,11:40,목,2022,2,24,12:15,인천,인천,강화,교동,봉소,기,기타(직접입력),화목난로재부주의,0.14,대한민국 인천 강화 교동,37.7778503,126.2829518
2022,2,23,20:27,수,2022,2,23,22:20,경북,경북,봉화,법전,풍정,기,기타(직접입력),비닐하우스화재비화,0.2,대한민국 경북 봉화 법전,36.9168911,128.8833652
2022,2,23,16:40,수,2022,2,23,17:47,경남,경남,사천,사천,구암,,주택화재비화,주텍화재비화,0.3,대한민국 경남 사천 사천,35.0933974,128.0903825
2022,2,23,13:17,수,2022,2,23,14:30,동부,강원,평창,진부,하진부,기,기타(직접입력),미상,0.16,대한민국 강원 평창 진부,37.6425685,128.5748224
2022,2,23,12:51,수,2022,2,23,15:07,경기,경기,여주,가남,안금,쓰,쓰레기소각,쓰레기소각(생활),3.0,대한민국 경기 여주 가남,37.1974167,127.5354382
2022,2,23,9:21,수,2022,2,23,11:00,경북,경북,영천,북안,유상,기,기타(직접입력),화목보일러재투기,0.1,대한민국 경북 영천 북안,35.9289422,129.011482
2022,2,22,19:48,화,2022,2,22,22:30,경기,경기,광주,남한산성,산성,기,기타(직접입력),미상,0.06,대한민국 경기 광주 남한산성,37.4791368,127.1801588
2022,2,22,18:24,화,2022,2,22,19:24,경기,경기,용인,기흥,마북,기,기타(직접입력),미상,0.03,대한민국 경기 용인 기흥,37.2755132,127.1160129
2022,2,22,18:15,화,2022,2,23,16:00,전북,전북,남원,산내,대정,입,기타(직접입력),입산자실화추정,16.5,대한민국 전북 남원 산내,35.40046,127.61642
2022,2,22,14:37,화,2022,2,24,1:30,경북,경북,의성,의성,중리,기,기타(직접입력),전기목책지합선,9.2,대한민국 경북 의성 의성,36.35336,128.693128
2022,2,22,13:54,화,2022,2,22,15:45,경기,경기,화성,서신,광평,쓰,쓰레기소각,쓰레기소각(생활),0.03,대한민국 경기 화성 서신,37.1694692,126.7050976
2022,2,22,13:20,화,2022,2,22,15:36,경기,경기,여주,가남,삼승,기,기타(직접입력),미상,0.1,대한민국 경기 여주 가남,37.1974167,127.5354382
2022,2,22,10:06,화,2022,2,22,14:50,경북,경북,영주,순흥,배점,,주택화재비화,주택화재비화,0.23,대한민국 경북 영주 순흥,36.91468,128.576039
2022,2,21,15:39,월,2022,2,21,16:04,충남,충남,부여,남,회동,입,기타(직접입력),입산자실화,0.01,대한민국 충남 부여 남,36.21074,126.79738
2022,2,21,15:36,월,2022,2,21,17:40,강원,강원,원주,판부,서곡,,기타(직접입력),건축물화재비화,0.1,대한민국 강원 원주 판부,37.2855367,127.974769
2022,2,21,12:36,월,2022,2,21,15:04,전남,전남,함평,나산,구산,담,담뱃불실화,담뱃불실화,0.3,대한민국 전남 함평 나산,35.1116785,126.6194909
2022,2,21,10:50,월,2022,2,21,12:30,울산,울산,울주,온양,고산,,농산폐기물소각,농업부산물소각(과수원),0.3,대한민국 울산 울주 온양,35.41114,129.25796
2022,2,21,10:35,월,2022,2,21,13:50,서부,전북,완주,소양,대흥,입,기타(직접입력),입산자실화,0.3,대한민국 전북 완주 소양,35.8573583,127.2487609
2022,2,20,13:52,일,2022,2,20,15:20,충북,충북,괴산,괴산,대사,입,기타(직접입력),입산자실화추정,0.1,대한민국 충북 괴산 괴산,36.815,127.7866
2022,2,20,12:59,일,2022,2,20,15:00,경기,경기,고양,일산동,중산,입,기타(직접입력),입산자실화,0.01,대한민국 경기 고양 일산동,37.6816091,126.7726954
2022,2,20,7:06,일,2022,2,20,8:07,경남,경남,거제,하청,연구,입,기타(직접입력),입산자실화,0.07,대한민국 경남 거제 하청,34.9538667,128.6552769
2022,2,19,23:35,토,2022,2,20,3:00,충남,충남,당진,석문,난지도,입,기타(직접입력),입산자(야영객)실화추정,0.3,대한민국 충남 당진 석문,37.0096458,126.5889323
2022,2,19,18:19,토,2022,2,19,19:25,충남,충남,태안,소원,파도,,주택화재비화,주택화재,0.03,대한민국 충남 태안 소원,36.76364,126.193092
2022,2,19,12:17,토,2022,2,19,14:15,경기,경기,양평,양평,오빈,,논밭두렁소각,논밭두렁소각,0.1,대한민국 경기 양평 양평,37.4928474,127.4918972
2022,2,19,7:58,토,2022,2,19,9:20,경기,경기,고양,덕양,원당,입,기타(직접입력),입산자실화,0.01,대한민국 경기 고양 덕양,37.6568755,126.831451
2022,2,18,16:40,금,2022,2,18,17:40,충남,충남,부여,세도,동사,입,기타(직접입력),입산자실화,0.05,대한민국 충남 부여 세도,36.166885,126.9436117
2022,2,16,15:33,수,2022,2,16,23:00,부산,부산,기장,철마,웅천,,주택화재비화,주택내가연물,0.2,대한민국 부산 기장 철마,35.274794,129.150785
2022,2,16,15:12,수,2022,2,16,16:30,경기,경기,광주,곤지암,곤지암,기,기타(직접입력),미상,0.06,대한민국 경기 광주 곤지암,37.3505063,127.346279
2022,2,16,13:27,수,2022,2,16,16:05,경기,경기,성남,중원,여수,담,담뱃불실화,담뱃불실화,0.15,대한민국 경기 성남 중원,37.4304122,127.1372922
2022,2,15,17:33,화,2022,2,15,19:00,전북,전북,남원,산내,백일,입,기타(직접입력),입산자실화추정,0.03,대한민국 전북 남원 산내,35.40046,127.61642
2022,2,15,13:04,화,2022,2,15,22:30,경북,경북,성주,선남,관화,,주택화재비화,공장화재비화,8.53,대한민국 경북 성주 선남,35.89751,128.34962
2022,2,14,21:57,월,2022,2,15,0:15,경북,경북,군위,군위,광현,,농산폐기물소각,농산폐기물소각,0.1,대한민국 경북 군위 군위,35.8113216,128.5955561
2022,2,14,16:07,월,2022,2,14,18:00,경남,경남,산청,시천,원,쓰,쓰레기소각,쓰레기소각(생활),0.5,대한민국 경남 산청 시천,35.26785,127.80039
2022,2,14,13:03,월,2022,2,14,15:24,충남,충남,금산,제원,명곡,기,기타(직접입력),미상,0.3,대한민국 충남 금산 제원,36.1278105,127.5556266
2022,2,13,14:43,일,2022,2,13,16:00,전북,전북,남원,대강,옥택,입,기타(직접입력),입산자실화추정,0.5,대한민국 전북 남원 대강,35.341931,127.215258
2022,2,13,13:18,일,2022,2,13,13:28,경기,경기,용인 처인,이동,덕성,,주택화재비화,주택화재비화,0.03,대한민국 경기 용인 처인 이동,37.1390766,127.1997811
2022,2,13,13:18,일,2022,2,13,14:10,경기,경기,양평,양서,국수,기,기타(직접입력),아궁이재비산,0.03,대한민국 경기 양평 양서,37.5475976,127.3278786
2022,2,13,12:02,일,2022,2,13,15:00,부산,부산,기장,철마,연구,기,기타(직접입력),조사중,0.02,대한민국 부산 기장 철마,35.274794,129.150785
2022,2,13,11:10,일,2022,2,13,11:55,전북,전북,순창,순창,가남,입,기타(직접입력),입산자실화추정,0.01,대한민국 전북 순창 순창,35.3741,127.1374
2022,2,13,9:25,일,2022,2,13,11:00,강원,강원,화천,사내,삼일,쓰,쓰레기소각,쓰레기소각(생활),0.05,대한민국 강원 화천 사내,38.064475,127.519577
2022,2,12,17:09,토,2022,2,12,19:01,전남,전남,순천,승주,도정,기,기타(직접입력),불씨취급부주의,0.2,대한민국 전남 순천 승주,35.0200339,127.3659726
2022,2,12,16:40,토,2022,2,12,19:01,전남,전남,순천,승주,구강,입,기타(직접입력),입산자실화,0.4,대한민국 전남 순천 승주,35.0200339,127.3659726
2022,2,12,15:18,토,2022,2,12,17:10,강원,강원,평창,대관령,유천,기,기타(직접입력),미상,0.1,대한민국 강원 평창 대관령,37.6895278,128.7532957
2022,2,12,14:20,토,2022,2,12,16:00,전남,전남,고흥,포두,장수,,논밭두렁소각,밭두렁소각,0.1,대한민국 전남 고흥 포두,34.568802,127.340706
2022,2,12,13:52,토,2022,2,12,15:40,충북,충북,영동,상촌,유곡,기,기타(직접입력),성묘객실화,1.47,대한민국 충북 영동 상촌,36.1076581,127.8949765
2022,2,11,17:10,금,2022,2,11,19:02,충남,충남,공주,우성,안양,입,기타(직접입력),입산자실화,0.12,대한민국 충남 공주 우성,36.4634819,127.0543365
2022,2,11,16:53,금,2022,2,11,17:40,강원,강원,양양,양양,감곡,기,기타(직접입력),불씨취급부주의,0.1,대한민국 강원 양양 양양,38.084794,128.6291232
2022,2,11,14:58,금,2022,2,11,16:30,경남,경남,밀양,초동,검암,쓰,쓰레기소각,쓰레기소각,0.06,대한민국 경남 밀양 초동,35.4211361,128.6726667
2022,2,11,14:05,금,2022,2,11,14:55,충남,충남,청양,남양,용마,입,기타(직접입력),입산자실화,0.06,대한민국 충남 청양 남양,36.400777,126.776892
2022,2,11,13:31,금,2022,2,11,14:38,부산,부산,기장,철마,송정,기,기타(직접입력),미상,0.04,대한민국 부산 기장 철마,35.274794,129.150785
2022,2,10,15:47,목,2022,2,10,17:08,경기,경기,남양주,와부,월운,기,기타(직접입력),미상,0.04,대한민국 경기 남양주 와부,37.5862797,127.2188793
2022,2,10,12:47,목,2022,2,10,13:40,경기,경기,양평,개군,하자포,쓰,쓰레기소각,쓰레기소각,0.01,대한민국 경기 양평 개군,37.4276556,127.5345472
2022,2,9,11:17,수,2022,2,9,12:50,강원,강원,춘천,신북,용산,기,기타(직접입력),성묘객실화(향불),0.05,대한민국 강원 춘천 신북,37.9584128,127.7768359
2022,2,8,13:49,화,2022,2,8,18:00,경기,경기,남양주,조안,조안,기,기타(직접입력),미상,0.5,대한민국 경기 남양주 조안,37.5463552,127.300391
2022,2,7,12:59,월,2022,2,7,17:00,경북,경북,안동,풍산,회곡,,논밭두렁소각,밭두렁소각,1.15,대한민국 경북 안동 풍산,36.5766159,128.5741354
2022,2,7,2:10,월,2022,2,7,8:00,전남,전남,고흥,고흥,등암,담,담뱃불실화,담뱃불추정,0.39,대한민국 전남 고흥 고흥,34.6044123,127.276384
2022,2,6,19:58,일,2022,2,6,20:50,경기,경기,광주,남한산성,하변천,기,기타(직접입력),미상,0.15,대한민국 경기 광주 남한산성,37.4791368,127.1801588
2022,2,6,13:13,일,2022,2,6,15:30,경남,경남,통영,산양,미남,,기타(직접입력),건축물실화,1.03,대한민국 경남 통영 산양,34.78237,128.38818
2022,2,5,16:55,토,2022,2,5,21:00,경북,경북,경주,양남,서동,기,작업장실화,산림사업장실화,0.69,대한민국 경북 경주 양남,35.6751587,129.46117
2022,2,4,18:32,금,2022,2,4,19:34,세종,세종,금남,,신촌,담,담뱃불실화,담뱃불추정,0.03,대한민국 세종 금남 nan,36.4607279,127.3028691
2022,2,4,14:03,금,2022,2,4,16:00,강원,강원,정선,화암,화암,기,기타(직접입력),화목보일러재투기,0.1,대한민국 강원 정선 화암,37.341764,128.7950441
2022,2,4,13:57,금,2022,2,4,15:50,경기,경기,화성,송산,천동,,농산폐기물소각,농업부산물소각,0.9,대한민국 경기 화성 송산,37.2873894,126.7392634
2022,2,3,15:46,목,2022,2,3,16:50,경북,경북,문경,영순,율곡,,농산폐기물소각,농업부산물소각,0.2,대한민국 경북 문경 영순,36.5785548,128.2447145
2022,2,1,5:48,화,2022,2,1,14:05,울산,울산,울주,서생,대송,입,기타(직접입력),입산자실화,2.5,대한민국 울산 울주 서생,35.345588,129.2928624
2022,1,31,14:10,월,2022,1,31,17:40,강원,강원,춘천,남,한덕,,논밭두렁소각,밭잡초소각,0.2,대한민국 강원 춘천 남,37.73591,127.59517
2022,1,31,13:57,월,2022,1,31,14:30,충남,충남,서천,판교,금덕,쓰,기타(직접입력),잡풀소각,0.01,대한민국 충남 서천 판교,36.1554157,126.6794253
2022,1,31,12:49,월,2022,1,31,15:30,경남,경남,사천,곤명,초량,기,기타(직접입력),성묘객실화,0.01,대한민국 경남 사천 곤명,35.1190754,127.95229
2022,1,31,11:10,월,2022,1,31,12:05,경기,경기,양평,지평,자산,기,기타(직접입력),화목보일러재투기,0.01,대한민국 경기 양평 지평,37.47681,127.6290656
2022,1,31,3:38,월,2022,1,31,7:00,전남,전남,담양,고서,주산,기,기타(직접입력),묘지쓰레기소각,0.02,대한민국 전남 담양 고서,35.2227528,126.9783976
2022,1,30,13:59,일,2022,1,30,14:40,충남,충남,청양,청남,상장,입,기타(직접입력),입산자실화추정,0.01,대한민국 충남 청양 청남,36.3547334,126.9517697
2022,1,30,13:21,일,2022,1,30,15:21,경기,경기,파주,법원,대능,기,기타(직접입력),미상,0.07,대한민국 경기 파주 법원,37.8325575,126.8805239
2022,1,30,6:21,일,2022,1,30,11:00,강원,강원,춘천,남,가정,기,기타(직접입력),미상,0.1,대한민국 강원 춘천 남,37.73591,127.59517
2022,1,29,15:45,토,2022,1,29,19:27,전북,전북,완주,소양,죽절,입,기타(직접입력),입산자실화추정,0.5,대한민국 전북 완주 소양,35.8573583,127.2487609
2022,1,28,19:14,금,2022,1,28,20:27,경북,경북,영덕,영덕,우곡,입,기타(직접입력),입산자실화,0.4,대한민국 경북 영덕 영덕,36.4102544,129.3783288
2022,1,28,13:55,금,2022,1,28,17:22,경남,경남,함양,휴천,호산,,주택화재비화,축사화재,0.31,대한민국 경남 함양 휴천,35.45121,127.73836
2022,1,28,13:50,금,2022,1,28,18:30,전남,전남,광양,진월,신구,담,담뱃불실화,담뱃불실화,4.4,대한민국 전남 광양 진월,35.0009,127.75334
2022,1,28,5:24,금,2022,1,28,11:00,경북,경북,경주,외동,개곡,기,기타(직접입력),전신주전선로아크발생,0.94,대한민국 경북 경주 외동,35.7169413,129.3259176
2022,1,27,14:50,목,2022,1,27,16:40,울산,울산,울주,온양,동상,기,작업장실화,산업현장실화,0.3,대한민국 울산 울주 온양,35.41114,129.25796
2022,1,27,11:10,목,2022,1,27,13:15,전북,전북,임실,임실,현곡,쓰,쓰레기소각,쓰레기소각,0.3,대한민국 전북 임실 임실,35.6329664,127.2898846
2022,1,26,18:04,수,2022,1,26,19:20,울산,울산,울주,웅촌,고연,입,기타(직접입력),입산자실화,0.03,대한민국 울산 울주 웅촌,35.4642227,129.2086445
2022,1,25,20:41,화,2022,1,25,22:35,경북,경북,성주,용암,상신,쓰,쓰레기소각,쓰레기소각추정,0.1,대한민국 경북 성주 용암,35.84581,128.3182
2022,1,23,14:33,일,2022,1,23,15:37,경남,경남,창녕,창녕,옥천,쓰,쓰레기소각,쓰레기소각,0.03,대한민국 경남 창녕 창녕,35.5443876,128.4921938
2022,1,23,14:05,일,2022,1,23,14:42,경기,경기,용인,기흥,중,기,기타(직접입력),미상,0.01,대한민국 경기 용인 기흥,37.2755132,127.1160129
2022,1,23,13:42,일,2022,1,23,15:20,경기,경기,광주,초월,신월,기,작업장실화,산업현장실화,0.05,대한민국 경기 광주 초월,37.3733591,127.2999508
2022,1,19,8:52,수,2022,1,19,10:11,경남,경남,함안,여항,내곡,쓰,쓰레기소각,쓰레기소각,0.19,대한민국 경남 함안 여항,35.19485,128.44247
2022,1,17,11:17,월,2022,1,17,11:52,경기,경기,고양,덕양,신원,기,기타(직접입력),조사중,0.02,대한민국 경기 고양 덕양,37.6569395,126.8311972
2022,1,17,10:01,월,2022,1,17,10:50,경북,경북,구미,장천,상장,기,기타(직접입력),화목보일러재처리부주의,0.01,대한민국 경북 구미 장천,36.14122,128.51315
2022,1,16,13:26,일,2022,1,16,14:30,경기,경기,광주,초월,지월,기,기타(직접입력),히우스화재비화,0.1,대한민국 경기 광주 초월,37.3733591,127.2999508
2022,1,15,9:27,토,2022,1,15,10:00,경기,경기,남양주,진접,장현,기,기타(직접입력),미상,0.01,대한민국 경기 남양주 진접,37.7200538,127.2032505
2022,1,14,11:52,금,2022,1,14,14:05,경북,경북,구미,장천,여남,,논밭두렁소각,밭두렁소각,0.2,대한민국 경북 구미 장천,36.14122,128.51315
2022,1,12,14:28,수,2022,1,12,15:30,경기,경기,남양주,와부,덕소,기,기타(직접입력),조사중(담뱃불추정),0.05,대한민국 경기 남양주 와부,37.5862797,127.2188793
2022,1,12,14:05,수,2022,1,12,15:40,강원,강원,평창,진부,상진부,,주택화재비화,주택화재,0.15,대한민국 강원 평창 진부,37.6425685,128.5748224
2022,1,12,13:48,수,2022,1,12,14:49,경북,경북,김천,감천,용호,입,기타(직접입력),입산자실화,0.1,대한민국 경북 김천 감천,36.1991761,128.2439129
2022,1,10,22:26,월,2022,1,11,17:45,경남,경남,창녕,성산,대산,입,기타(직접입력),입산자실화추정,5.5,대한민국 경남 창녕 성산,35.52618,128.37123
2022,1,10,21:01,월,2022,1,11,17:30,경북,경북,영주,평은,오운,입,기타(직접입력),입산자실화,14.1,대한민국 경북 영주 평은,36.761343,128.688969
